oid,id_samhsa_ftloc,id_dbhids_tad,id_ba_tad,id_samhsa_otp,id_hfp_fqhc,id_other_srcs,map_marker,name1,name2,name3,website1,website2,phone1,phone2,phone3,street1,street2,city,state_usa,zipcode,latitude,longitude,bu,nu,mu,otp,mat_avail,asm,ba,ref_notes,hh,hwm,rhl,rhs,wm,uo,fqhc,prim_care,telehealth,md,mc,oi,pa,oit,op,ta,hs,mhs,ccc,dvh,pw,ad,se,gl,sp,ah,fem,male,archival_only,why_hidden,data_review,date_update
1,100008,"[100009,100049]",1008,,,,ba_weekly,Gaudenzia Inc.,Outreach I,,https://www.gaudenzia.org/,,215-238-2150 x2214,267-315-6907,,1306 Spring Garden Street,,Philadelphia,PA,19123,39.961763,-75.15979999,Yes,Yes,No,No,Yes,Yes,Yes,"Offers assessment | For bed availability, see: ""Gaudenzia""",False,,False,False,,,No,,Yes,Yes,No,No,No,Yes,Yes,Yes,Yes,Yes,No,No,No,No,No,No,Yes,No,Yes,Yes,False,,,
2,100048,,1001,,,,ba_weekly,Beacon Point Recovery Center,,,,,267-313-0606,,,2301 East Allegheny Avenue,,Philadelphia,PA,19134,39.98999798,-75.10601599,Yes,Yes,No,No,Yes,,Yes,"For bed availability, see: ""Beacon Point""",False,,,False,,,,,Yes,No,No,Yes,No,No,No,Yes,Yes,Yes,No,No,No,No,No,No,Yes,No,Yes,Yes,False,,,
3,100045,100010,1002,,,,ba_weekly,Gaudenzia Inc.,DRC,,https://www.gaudenzia.org/,,215-991-9700 x279,215-991-9700 x220,610-416-4935,3200 Henry Avenue,,Philadelphia,PA,19129,40.00934501,-75.18120804,Yes,Yes,No,No,Yes,,Yes,"For bed availability, see: ""DRC""",False,,False,False,,,,,Yes,Yes,Yes,Yes,Yes,Yes,Yes,Yes,Yes,Yes,No,Yes,No,No,Yes,Yes,Yes,No,Yes,Yes,False,,,
4,,,1003,100120,,100037,ba_weekly,Eagleville Hospital,,,https://www.eagleville.org/,,610-539-6000,800-255-2019,610-539-6000 x1,100 Eagleville Road,,Eagleville,PA,19403,40.15626598,-75.41479902,,,,Yes,Yes,,Yes,"For bed availability, see: ""Eagleville""",,False,,False,,False,,,,,,,,,,,,,,,,,,,,,,,False,,,
5,100069,,1004,,,,ba_weekly,Fairmount Behavioral Health System,,,https://fairmountbhs.com/,,215-487-4000 x4000,215-487-4100,,561 Fairthorne Avenue,,Philadelphia,PA,19128,40.04343002,-75.22155198,Yes,Yes,No,No,Yes,,Yes,"For bed availability, see: ""Fairmount""",False,,,False,,,,,No,Yes,Yes,Yes,No,No,No,Yes,Yes,Yes,No,No,No,No,No,No,No,Yes,Yes,Yes,False,,,
6,,,1005,,,100029,ba_weekly,RHD,Family House Now,,https://www.rhd.org/program/family-house-now-new-options-for-women/,,215-878-8616,,,1020 North 48th Street,,Philadelphia,PA,19131,39.97091464,-75.21732349,,,,,Yes,,Yes,"Women only | For bed availability, see: ""Family House Now""",,,,False,,False,,,,,,,,,,,,,Yes,,,,,,,,Yes,No,False,,,
7,,,1006,,,100030,ba_weekly,Firetree Ltd.,Conewago Place (Hummelstown),,https://www.firetree.com/locations/conewago-place/,,717-533-0428,888-347-3873,,424 Nye Road,,Hummelstown,PA,17036,40.23964601,-76.64827604,,,,,Yes,,Yes,"Men only | For bed availability, see: ""Firetree/Conewago Hummelstown""",,,,False,,False,,,,,,,,,,Yes,,,,,,,,,,,No,Yes,False,,,
8,,,1007,,,100031,ba_weekly,Firetree Ltd.,Conewago Pottsville,,https://www.firetree.com/locations/conewago-pottsville/,,570-628-5835,888-347-3873,,202 South Centre Street,,Pottsville,PA,17901,40.68397502,-76.193465,,,,,Yes,,Yes,"For bed availability, see: ""Firetree/Conewago Pottsville""",,,,False,,False,,,,,,,,,,Yes,,,,,,,,,,,Yes,Yes,False,,,
9,,,1009,,,100032,ba_weekly,"Good Friends, Inc.",,,https://goodfriendsinc.org,,215-736-2861,,,868 West Bridge Street,,Morrisville,PA,19067,40.20093499,-74.79211104,,,,,Unclear,,Yes,"Men only | For bed availability, see: ""Good Friends""",,,,False,,False,,,,,,,,,,,,,,,,,,,,,No,Yes,False,,,
10,,,1010,,,100033,ba_weekly,Penn Medicine,HUP Cedar,,https://www.pennmedicine.org/for-patients-and-visitors/penn-medicine-locations/hospital-of-the-university-of-pennsylvania-cedar-ave,https://www.trinityhealthma.org/location/mcmc-mercy-philadelphia,215-748-9000,,,501 South 54th Street,,Philadelphia,PA,19143,39.95241393,-75.23024877,Yes,,,No,Yes,,Yes,"For bed availability, see: ""HUP Cedar""",,,,False,,False,,,,,,,,,,,,,,,,,,,,,,,False,,,
11,100042,100050,,100010,,,dbhids_else,Mercy Philadelphia Hospital,,,https://www.trinityhealthma.org/location/mcmc-mercy-philadelphia,,215-748-9391,215-831-2600,,501 South 54th Street,,Philadelphia,PA,19143,39.95241393,-75.23024877,Yes,Yes,Yes,Yes,Yes,Yes,,Offers assessment,False,False,False,,,,,,No,Yes,Yes,Yes,No,No,No,No,Yes,No,No,No,No,No,No,No,No,Yes,Yes,Yes,True,Source removed record,,
12,100065,100012,1011,,,,ba_weekly,PHMC,"Interim House, Inc.",,https://interimhouse.phmc.org/,,215-849-4606 x6617,215-849-4606 x6607,215-849-4606 x6602,333 West Upsal Street,,Philadelphia,PA,19119,40.04313401,-75.18895501,Yes,Yes,No,No,Yes,,Yes,"Women only | For bed availability, see: ""Interim House""",False,,False,False,False,,Yes,Yes,Yes,Yes,Unclear,No,No,Yes,Yes,Yes,Yes,Yes,No,Yes,No,No,No,No,Unclear,No,Yes,No,False,,,
13,100034,,1012,,,,ba_weekly,PHMC,Interim House West,,https://www.phmc.org/site/32-misc/shared-programs/155-ihw,https://www.phmc.org,215-871-0300,,,4108 Parkside Avenue,,Philadelphia,PA,19104,39.975203,-75.20738103,Yes,Yes,No,No,Yes,,Yes,"Women only | For bed availability, see: ""Interim House West""",False,,,False,False,,Yes,Yes,No,Yes,Unclear,Yes,No,No,No,Yes,Yes,Yes,Yes,Yes,Yes,No,No,Yes,No,No,Yes,No,False,,,
14,100030,100017,1013,100022,,,ba_weekly,Kensington Hospital,,,https://www.kensingtonhospital.org/,,215-426-8100,215-426-8100 x6020,215-426-8100 x6005,136 West Diamond Street,,Philadelphia,PA,19122,39.98182741,-75.13466693,Yes,No,Yes,Yes,Yes,,Yes,"For bed availability, see: ""Kensington""",False,False,False,False,,,,,No,Yes,Yes,Yes,No,No,No,Yes,Yes,No,No,No,No,No,No,No,Yes,No,Yes,Yes,False,,,
15,,,1014,,,100034,ba_weekly,Keystone Center,,,https://keystonecenter.net/,,610-876-9000,,,2001 Providence Avenue,,Chester,PA,19013,39.86595399,-75.36057498,Yes,Yes,No,No,Yes,,Yes,"For bed availability, see: ""Keystone Center""",,,,False,,False,,,,,,,,,,,,,,,,,,,,,,,False,,,
16,100036,,1015,100009,,,ba_weekly,Kirkbride Center,,,http://www.kirkbridecenter.com/,,215-471-2600,215-471-2488,215-471-2078,111 North 49th Street,,Philadelphia,PA,19139,39.96135098,-75.21802798,Yes,Yes,Yes,Yes,Yes,,Yes,"For bed availability, see: ""Kirkbride""",False,False,,False,,,,,No,Yes,No,Yes,No,No,No,Yes,Yes,Yes,No,Yes,No,No,No,No,Yes,Yes,Yes,Yes,False,,,
17,,,1016,,,100035,ba_weekly,"Libertae, Inc.",Freedom in Recovery,,https://www.libertae.org/,,215-639-8681,,,5245 Bensalem Boulevard,,Bensalem,PA,19020,40.114369,-74.90854699,,,,,Unclear,,Yes,"Women only | For bed availability, see: ""Libertae""",,,,False,,False,,,Yes,,,,,,,,,,,,,,,,,,Yes,No,False,,,
18,100097,,1017,,,,ba_weekly,Malvern Treatment Centers,Willow Grove Inpatient,,https://www.malverntreatment.com/willow-grove-pa/,https://www.malverntreatment.com/,610-625-8376,610-647-0330,,240 Fitzwatertown Road,,Willow Grove,PA,19090,40.15319502,-75.127733,Yes,Yes,No,No,Yes,,Yes,"For bed availability, see: ""Malvern Treatment Centers (7278)""",False,,,False,,,,,Yes,Yes,No,Yes,No,No,No,Yes,Yes,Yes,No,Yes,No,No,Yes,Yes,No,Yes,Yes,Yes,False,,[_] 5 locations: Which are included in DBHIDS bed availability updates? (https://www.malverntreatment.com/locations/),
19,,,1017,,,100039,ba_weekly,Malvern Treatment Centers,Philadelphia Inpatient,Constitution Health Plaza,https://www.malverntreatment.com/malvern-philadelphia/,,610-625-8376,,,1930 South Broad Street,3rd Floor,Philadelphia,PA,19145,39.92632402,-75.17026898,,,,,Yes,,Yes,"For bed availability, see: ""Malvern Treatment Centers (7278)""",,,,False,,False,,,,,,,,,,,,,,,,,,,,,,,False,,Opened 2021-02-22,
20,,,1017,,,100040,ba_weekly,Malvern Treatment Centers,Malvern Inpatient,,https://www.malverntreatment.com/malvern-pa/,,610-625-8376,,,940 West King Road,,Malvern,PA,19355,40.02924925,-75.54418768,,,,,Yes,,Yes,"For bed availability, see: ""Malvern Treatment Centers (7278)""",,,,False,,False,,,,,,,,,,,,,,,,,,,,,,,False,,Address is only for GPS (mail: P.O. Box 356),
21,,,1017,,,100041,ba_weekly,Malvern Treatment Centers,Bethlehem Outpatient,,https://www.malverntreatment.com/allentown-pa/,,610-625-8376,,,2092 Stefko Boulevard,,Bethlehem,PA,18017,40.64191102,-75.34634301,,,,,Yes,,Yes,"For bed availability, see: ""Malvern Treatment Centers (7278)""",,,,False,,False,,,,,,,,,,,,,,,,,,,,,,,False,,,
22,,,1017,,,100042,ba_weekly,Malvern Treatment Centers,Pottstown Outpatient,,https://www.malverntreatment.com/pottstown-pa/,,610-625-8376,,,1566 Medical Drive,Suite 201,Pottstown,PA,19464,40.238336,-75.61349103,,,,,Yes,,Yes,"For bed availability, see: ""Malvern Treatment Centers (7278)""",,,,False,,False,,,,,,,,,,,,,,,,,,,,,,,False,,,
23,100009,,1018,,,,ba_weekly,Jefferson University Hospitals,My Sister's Place (MSP),,https://hospitals.jefferson.edu/departments-and-services/obstetrics-and-gynecology/programs-and-services/maternal-addiction-treatment.html,https://www.jefferson.edu/,215-955-3792,215-763-1020,,1239 Spring Garden Street,,Philadelphia,PA,19123,39.96228599,-75.15907403,Yes,No,No,No,Yes,,Yes,"Women only | For bed availability, see: ""My Sister's Place""",False,,,False,,,,,No,Yes,No,Yes,No,No,No,Yes,Yes,Yes,Yes,Yes,Yes,No,No,Yes,No,No,Yes,No,False,,,
24,"[100015,100016,100017]",100022,1019,,,,ba_weekly,NPHS (North Philadelphia Health System),Miracles in Progress,,https://bewellctr.org/,www.nphs.com,215-787-2000 (ask for MIP),215-787-2313,215-787-2407,801 West Girard Avenue,,Philadelphia,PA,19122,39.97137201,-75.14977598,Yes,Yes,No,No,Yes,,Yes,"For bed availability, see: ""NPHS"" and ""Journey of Hope Project""",False,,False,False,,,,,Yes,Yes,No,Yes,No,Unclear,Unclear,No,Yes,Unclear,No,Yes,No,No,No,Yes,Yes,Yes,Yes,Yes,False,,[_] Compare Behavioral Wellness details?,
25,"[100018,100019,100020,100021]",,,100006,,,samhsa_otp,Behavioral Wellness Center,(formerly NPHS Goldman Clinic),,https://bewellctr.org/,,215-787-2407,215-787-2070,215-787-2080,801 West Girard Avenue,,Philadelphia,PA,19122,39.97137201,-75.14977598,Yes,Yes,Yes,Yes,Yes,,Unclear,"For bed availability, see: ""NPHS""",False,False,,,,,,,Yes,Yes,Unclear,Unclear,No,No,No,Unclear,Yes,Unclear,No,Yes,No,No,Unclear,Yes,Yes,Yes,Yes,Yes,False,,[_] Compare NPHS details?,
26,,,1020,,,100036,ba_weekly,Nuestra Clínica Residential,Spanish American Civic Association,,https://sacapa.org/human-services/nuestra-clinica/,,717-397-6267,717-431-1435,,50 East New Street,,Lancaster,PA,17602,40.04891098,-76.30599197,,,,,Unclear,,Yes,"Men only | For bed availability, see: ""Nuestra Clinica Residencial""",,,,False,,False,,,,Yes,,,,,,Yes,,,,,,,,,Yes,,No,Yes,False,,,
27,,,1021,,,,ba_weekly,Penn Medicine,Presbyterian Medical Center,Inpatient Substance Use Treatment,https://www.med.upenn.edu/recovery/,https://www.pennmedicine.org/for-patients-and-visitors/penn-medicine-locations/penn-presbyterian-medical-center,215-662-8283 (admission referrals from providers),215-662-8884,215-662-8747,51 North 39th Street,"Wright Saunders Building, 4th Floor",Philadelphia,PA,19104,39.95886701,-75.19879796,Yes,Yes,No,No,Yes,,Yes,"For bed availability, see: ""Presbyterian/Wright4""",,,,False,,,,,No,Yes,Yes,Yes,Yes,No,No,Yes,Yes,Yes,No,No,No,No,No,No,No,No,Yes,Yes,False,,,
28,,,1022,,,100038,ba_weekly,"Re-Enter, Inc.",,,https://philadelphia.pa.networkofcare.org/mh/services/agency.aspx?pid=REENTERINCemclasscbhPhillyCBHem_209_2_0,,215-222-2770 x106 (24 Hours),,,3331 Powelton Avenue,,Philadelphia,PA,19104,39.96048702,-75.19076701,,,,,Unclear,,Yes,"Men only | For bed availability, see: ""Re-Enter""",,,,False,,False,,,,Yes,,,,,,,,,,,,,,,,,No,Yes,False,Data needs review,"Website has just blank page ""Coming soon""",
29,,,1023,,,100002,ba_weekly,CATCH (Citizens Acting Together Can Help),River's Bend Addiction Treatment Unit,,https://catchinc.com/services/drug-alchohol/riversbend-addiction-treatment-unit/,,215-735-7435,215-755-6112,,2401 Penrose Avenue,2nd Floor,Philadelphia,PA,19145,39.90916199,-75.18831103,,,,,Unclear,,Yes,"For bed availability, see: ""Riversbend""",,,,False,,False,,,,,,,,,,Yes,,,,,,,,,,,,,False,,,
30,100100,,1024,100020,,,ba_weekly,"Self Help Movement, Inc.",,,https://selfhelpmovement.org/,,215-677-7778,215-915-0002,,2600 Southampton Road,,Philadelphia,PA,19116,40.11983905,-74.99525677,Yes,Yes,No,Unclear,Yes,,Yes,"Men only | For bed availability, see: ""Self Help Movement Inc""",False,False,,False,,,,,Yes,Yes,No,Yes,No,No,No,Yes,Yes,Yes,No,No,No,No,No,No,No,No,No,Yes,False,,,
31,,,1025,100148,,,ba_weekly,Valley Forge Medical Center and Hospital,Avenues Recovery,,https://vfmc.net/,,610-539-8500,,,1033 West Germantown Pike,,Norristown,PA,19403,40.15822601,-75.36806798,,,,Yes,Yes,,Yes,"For bed availability, see: ""Valley Forge""",,False,,False,,,,,,,,,,,,,,,,,,,,,,,,,False,,,
32,100066,,1026,,,,ba_weekly,Northeast Treatment Centers (NET),Wharton Residential Center,,http://netcenters.org/,,215-451-7000,215-288-5490,215-289-3350,2205 Bridge Street,,Philadelphia,PA,19137,40.01062899,-75.06910503,Yes,Yes,Yes,Yes,Yes,,Yes,"Men only | For bed availability, see: ""Wharton Center""",False,,,False,,,,,Yes,Yes,No,No,No,No,No,Yes,Yes,Yes,No,No,No,No,No,No,No,Yes,No,Yes,False,,,
33,100067,100024,,100011,,,dbhids_else,Northeast Treatment Centers,NET Steps,,http://netcenters.org/,,215-831-6039,215-743-6150 x6024,,2205 Bridge Street,,Philadelphia,PA,19137,40.01062899,-75.06910503,Yes,Yes,Yes,Yes,Yes,,No,,False,False,False,,,,,,No,Yes,No,Yes,No,Yes,Yes,Yes,Yes,Yes,Yes,No,Yes,No,No,No,Yes,No,Yes,Yes,False,,,
34,,,1027,,,100043,ba_monthly,Journey of Hope Project,,,https://dbhids.org/about/organization/office-of-mental-health/office-of-addiction-services/the-journey-of-hope-project/,https://www.journeyofhopeproject.net/,,,,[No address or phone identified: see website for locations],,Philadelphia,PA,,39.97137201,-75.14977598,,,,,Unclear,,Yes,"For bed availability, see: ""Journey of Hope Project""",,,,False,,False,,,,,,,,,,,,,,,,,,,,,,,False,,,
35,,,1027,,,100044,ba_monthly,Journey of Hope Project,WomanSpace Philadelphia,,https://www.rhd.org/program/womanspace-philadelphia/,https://dbhids.org/about/organization/office-of-mental-health/office-of-addiction-services/the-journey-of-hope-project/,215-844-2400,,,6400 Germantown Avenue,,Philadelphia,PA,19119,40.045808,-75.18252902,,,,,Unclear,,Yes,"Women only | For bed availability, see: ""Journey of Hope Project""",,,,False,,False,,,,,,,,,,,,,,,,,,,,,Yes,No,False,,,
36,,,1027,,,100045,ba_monthly,Journey of Hope Project,Morris Home,,https://www.rhd.org/morrishome/,https://dbhids.org/about/organization/office-of-mental-health/office-of-addiction-services/the-journey-of-hope-project/,215-729-3045,,,5037 Woodland Avenue,,Philadelphia,PA,19143,39.93940599,-75.21516396,,,,,Unclear,,Yes,"For bed availability, see: ""Journey of Hope Project""",,,,False,,False,,,,,,,,,,,,,,,,,,,,,,,False,,,
37,,,1027,,,100046,ba_monthly,Journey of Hope Project,RHD New Start II (3C),,https://www.rhd.org/program/new-start-ii-at-jackson-street/,https://dbhids.org/about/organization/office-of-mental-health/office-of-addiction-services/the-journey-of-hope-project/,215-537-8236,,,5000 Jackson Street,,Philadelphia,PA,19124,40.01556601,-75.07419997,,,,,Unclear,,Yes,"For bed availability, see: ""Journey of Hope Project""",,,,False,,False,,,,,,,,,,,,,,,,,,,,,,,False,,,
38,,,1027,,,100047,ba_monthly,Journey of Hope Project,RHD New Start I,,https://www.rhd.org/program/new-start-i/,https://dbhids.org/about/organization/office-of-mental-health/office-of-addiction-services/the-journey-of-hope-project/,215-228-2323,,,3653 North 15th Street,,Philadelphia,PA,19140,40.00921199,-75.15270303,,,,,Unclear,,Yes,"For bed availability, see: ""Journey of Hope Project""",,,,False,,False,,,,,,,,,,,,,,,,,,,,,,,False,,,
39,,100042,,,,,dbhids_assessment,Northeast Treatment Centers,NET Access Point,,http://netcenters.org/,,844-533-8200,215-408-4987,,499 North 5th Street,Suite B,Philadelphia,PA,19123,39.96048776,-75.14671186,Yes,Yes,No,,Yes,Yes,,Offers assessment,,,False,,,,,,,,,,,,,,,,,,,,,,,,,,False,,,
40,,100043,,,,100048,dbhids_assessment,Friends Hospital,,,https://friendshospital.com/,,215-831-2600,800-889-0548,215-831-4600,4641 Roosevelt Boulevard,,Philadelphia,PA,19124,40.02570799,-75.10244002,Yes,No,No,No,Yes,Yes,,Offers assessment,,,False,,,False,,,,,,,,,,,,,,,,,,,,,,,False,,,
41,,100044,,,,100049,dbhids_assessment,Einstein Medical Center Philadelphia,,,https://www.einstein.edu/einstein-medical-center-philadelphia,,215-951-8300,215-456-7890,,5501 Old York Road,,Philadelphia,PA,19141,40.03739899,-75.14355996,Yes,No,No,No,Yes,Yes,,Offers assessment,,,False,,,False,,,,,,,,,,,,,,,,,,,,,,,False,,,
42,,100045,,,,100050,dbhids_assessment,Penn Medicine,Hall Mercer Community Mental Health Assessment Center,,https://www.med.upenn.edu/recovery/,,215-829-5249 (open 24 hours),215-829-5433,,245 South 8th Street,,Philadelphia,PA,19106,39.94681899,-75.15424798,Unclear,No,No,,Unclear,Yes,,Offers assessment,,,False,,,False,,,,,,,,,,,,,,,,,,,,,,,False,,,
43,,100046,,,,100051,dbhids_assessment,Temple Health,Temple University Hospital - Episcopal Campus,Crisis Response Center,https://www.templehealth.org/services/psychiatry/crisis-response-center,https://www.templehealth.org/locations/episcopal-campus-tuh,215-707-2577,215-707-1200,,100 East Lehigh Avenue,,Philadelphia,PA,19125,39.98999999,-75.12924501,Yes,No,No,No,Yes,Yes,,Offers assessment,,,False,,,False,,,,,,,,,,,,,,,,,,,,,,,False,,,
44,,100047,,,,100052,dbhids_assessment,Philadelphia Children's Crisis Response Center,,,https://www.philachildrenscrc.com/,,215-878-2600,877-287-4620,,3300 Henry Avenue,"Falls Two Building, 3rd Floor",Philadelphia,PA,19129,40.01177098,-75.18455996,No,No,No,,Unclear,Yes,,Offers assessment,,,False,,,False,,,,,,,,,,,,,,,,Yes,,,,,,,False,,,
45,100047,"[100028,100048]",,,100048,,dbhids_assessment,PHMC,Pathways to Recovery,,https://www.phmc.org/site/32-misc/shared-programs/1242-pathways-to-recovery,,215-731-2402,215-731-2404,215-985-2573,2301 East Allegheny Avenue,2nd Floor,Philadelphia,PA,19134,39.98999798,-75.10601599,Yes,Yes,Unclear,No,Yes,Yes,,Offers assessment,False,,False,,False,,Yes,Yes,Yes,Yes,Yes,Yes,Yes,No,Yes,Yes,Yes,Yes,No,No,No,No,No,No,Yes,No,Yes,Yes,False,,,
46,100004,100001,,100001,,,dbhids_else,AMHA,"Addiction Medicine and Health Advocates, Inc.",,https://www.amhainc.org/,,215-923-4202,215-923-4202 x101,,928 Market Street,,Philadelphia,PA,19107,39.95140098,-75.1560535,No,No,Yes,Yes,Yes,,,,False,False,False,,,,,,No,Yes,No,No,No,Yes,Yes,No,Yes,No,Yes,Yes,No,No,Yes,Yes,Yes,No,Yes,Yes,False,,,
47,100053,100002,,,,100053,dbhids_else,Asociación Puertorriqueños en Marcha (APM),,,https://apmphila.org/how-we-help/health/,,267-296-7220,267-296-7200,267-296-7223,4301 Rising Sun Avenue,,Philadelphia,PA,19140,40.015901,-75.12910001,Yes,No,No,No,Yes,,,,False,,False,,,False,,,No,Yes,No,Yes,No,Yes,Yes,Yes,Yes,Yes,No,Yes,No,No,No,No,Yes,No,Yes,Yes,False,,,
48,100112,100003,,,,,dbhids_else,Casa de Consejeria y Salud Integral,,,https://www.casacares.net/,,215-634-3259 x117,215-634-3259,800-273-8255 (mental health crisis hotline),213 West Allegheny Avenue,,Philadelphia,PA,19133,39.999377,-75.13368499,Unclear,No,No,No,Unclear,,,,False,,False,,,,,,No,Yes,Yes,No,No,Yes,Yes,Yes,Yes,No,No,Yes,No,Yes,No,No,Yes,No,Yes,Yes,False,,,
49,100005,100004,,,,,dbhids_else,PHMC,CHANCES,,https://www.phmc.org/site/32-misc/shared-programs/119-chances,,215-923-0218 x5231,215-923-0218 x5228,215-923-0751,1200 Callowhill Street,Suite 102,Philadelphia,PA,19123,39.95904123,-75.1583643,Yes,Unclear,No,No,Yes,,,,False,,False,,,,,,No,Yes,Yes,No,No,Yes,Yes,Yes,No,Yes,Yes,Yes,Yes,No,Yes,Yes,Yes,Yes,Yes,Yes,False,,,
50,,100032,,,100045,,dbhids_coe,PHMC,Care Clinic,,https://www.phmc.org/site/programs/health-care-centers/375-phmc-care-clinic,,267-398-0247,215-825-8220,215-787-9617,1200 Callowhill Street,Suite 101,Philadelphia,PA,19123,39.95904123,-75.1583643,Yes,Yes,No,No,Yes,,,,,,False,,False,,Yes,Yes,Yes,Yes,Yes,,,,,,,,,,,,,,Yes,,,,False,,,
51,,100005,,,,,dbhids_else,COMHAR,The Welcome Center,,https://www.comhar.org/,,215-427-5800,267-861-4382,,2055 East Allegheny Avenue,,Philadelphia,PA,19134,39.99300201,-75.10982297,Yes,No,No,No,Yes,,,,,,False,,,,,,,,,,,No,Yes,,,Yes,,,,,,,Yes,,,,False,,,
52,,100006,,,,,dbhids_else,COMHAR,Latino Treatment Program,,https://www.comhar.org/latino-treatment-program,,215-739-2669,267-861-4382,,2600 North American Street,,Philadelphia,PA,19133,39.99021499,-75.13687397,Yes,No,No,No,Yes,,,,,,False,,,,,,,,,,,No,Yes,,,Yes,,,,,,,Yes,,,,False,,,
53,100024,100007,,100007,,,dbhids_else,"The Consortium, Inc.",Drug Abuse Rehabilitation Program,,https://consortiuminc.org/addiction-services/,,215-596-8000 x1203,215-596-8000 x1252,,451 South University Avenue,,Philadelphia,PA,19104,39.94826101,-75.197984,Yes,Yes,Unclear,Yes,Yes,,,[_] Reconcile DBHIDS/SAMHSA for buprenorphine no/yes and methadone yes/no,False,False,False,,,,,,No,Yes,Yes,Yes,No,Yes,Yes,Yes,Yes,Yes,Yes,Yes,No,No,No,No,Unclear,No,Yes,Yes,False,,,
54,100051,100008,,,,,dbhids_else,Drexel Medicine,Caring Together Clinic,Addictions and Mental Health Program for Women,https://drexelmedicine.org/patient-services/the-caring-together-program/,,215-967-2130,,,4700 Wissahickon Avenue,"Building C, Suite 102",Philadelphia,PA,19144,40.01538098,-75.174055,Yes,Yes,No,No,Yes,,,Women only,False,,False,,,,,,Yes,Yes,Yes,Yes,No,No,Yes,Yes,Yes,Yes,Yes,Yes,No,No,No,No,No,No,Yes,No,False,,,
55,100056,100011,,,,,dbhids_else,GPASS SAFE,Greater Philadelphia Asian Social Services Center,,https://www.gpasspa.org/,,215-456-1662,,,4943 North 5th Street,,Philadelphia,PA,19120,40.02692601,-75.13228404,Yes,Yes,No,No,Yes,,,[_] Reconcile DBHIDS/SAMHSA for buprenorphine no/yes,False,,False,,,,,,Yes,Yes,Yes,Yes,No,Yes,Yes,Yes,Yes,Yes,No,Yes,No,No,No,No,Yes,No,Yes,Yes,False,,,
56,100104,100013,,100012,,,dbhids_else,JEVS Human Services,ACT I (Achievement Through Counseling and Treatment),,https://www.jevshumanservices.org/act/,,215-276-8400 x2601,215-236-0100,,5820 Old York Road,,Philadelphia,PA,19141,40.04204101,-75.14472698,No,No,Yes,Yes,Yes,,,,False,False,False,,,,,,No,Yes,Yes,No,No,Yes,Yes,Yes,Yes,No,No,Yes,No,No,Yes,No,No,No,Yes,Yes,False,,[_] Why was listing removed from SAMHSA in 2021q1/q2?,
57,100102,100014,,100002,,,dbhids_else,JEVS Human Services,ACT II (Achievement Through Counseling and Treatment),,https://www.jevshumanservices.org/act/,,215-236-0100,215-236-0100 x2653,215-276-8400 x2622,1745 North 4th Street,,Philadelphia,PA,19122,39.97752701,-75.141207,Unclear,No,Yes,Yes,Yes,,,,False,False,False,,,,,,No,Yes,No,No,No,Yes,Yes,Yes,Yes,No,No,Yes,No,No,Yes,No,Yes,No,Yes,Yes,False,,[_] Why was listing removed from SAMHSA in 2021q1/q2?,
58,100013,100015,,100016,,,dbhids_else,John F. Kennedy Behavioral Health Center (JFK),Drug Treatment Clinic,,http://www.jfkbhc.org/,,215-235-5520,,,907 North Broad Street,,Philadelphia,PA,19123,39.970435,-75.15917604,Unclear,Unclear,Yes,Yes,Yes,,,[_] Reconcile DBHIDS/SAMHSA for buprenorphine no/yes and naltrexone no/yes,False,False,False,,,,,,No,Yes,No,No,No,No,Yes,Yes,Yes,Yes,No,No,No,No,No,No,No,No,Yes,Yes,False,,,
59,100001,100016,,,,,dbhids_else,John F. Kennedy Behavioral Health Center (JFK),Main Clinic,,http://www.jfkbhc.org/,,215-568-0860 x3352,,,112 North Broad Street,,Philadelphia,PA,19102,39.95497101,-75.16356899,No,Yes,No,No,Yes,,,[_] Reconcile DBHIDS/SAMHSA for intensive outpatient no/yes,False,,False,,,,,,No,Yes,Yes,No,Yes,Unclear,Yes,Yes,Yes,Yes,No,Yes,No,No,No,No,No,No,Yes,Yes,False,,,
60,100043,100018,,100008,,,dbhids_else,Merakey Parkside Recovery,,,https://www.merakey.org/services/addiction-recovery,,215-879-6116 x229,215-879-6116,866-647-0007,5000 Parkside Avenue,,Philadelphia,PA,19131,39.979682,-75.21979103,Yes,Yes,Yes,Yes,Yes,,,,False,False,False,,,,,,Yes,Yes,Yes,Yes,No,Yes,Yes,Yes,Yes,Yes,Yes,Yes,No,No,Yes,No,Yes,Yes,Yes,Yes,False,,,
61,100057,100019,,100014,,,dbhids_else,Merakey Parkside Recovery,Germantown,,https://www.merakey.org/services/addiction-recovery,,215-754-0240 x207 or x165,866-647-0007,215-754-0246,5429 Germantown Avenue,,Philadelphia,PA,19144,40.03397502,-75.17134698,Yes,Yes,Yes,Yes,Yes,,,,False,False,False,,,,,,Yes,Yes,No,No,No,Yes,Yes,Yes,Yes,Yes,No,Yes,No,No,Yes,No,Yes,No,Yes,Yes,False,,,
62,100095,100021,,,,,dbhids_else,Merakey Parkside Recovery,Knights Road,,https://www.merakey.org/services/addiction-recovery,,215-632-9040 x190,866-647-0007,215-632-9040 x234,11082 Knights Road,,Philadelphia,PA,19154,40.08360301,-74.97527096,Yes,Yes,No,No,Yes,,,,False,,False,,,,,,No,Yes,Yes,Yes,No,Yes,Yes,Yes,Yes,Yes,No,Yes,No,No,No,No,No,No,Yes,Yes,False,,,
63,100012,100023,,100019,,,dbhids_else,Northeast Treatment Centers (NET),Spring Garden Counseling Center,,http://netcenters.org/,,215-451-7100,877-638-4581,215-451-7000,499 North 5th Street,,Philadelphia,PA,19123,39.96048776,-75.14671186,Yes,Yes,No,Yes,Yes,,,,False,False,False,,,,,,Yes,Yes,Yes,No,No,Yes,Yes,Yes,Yes,Yes,No,No,No,Yes,No,No,No,No,Yes,Yes,False,,,
64,100075,100025,,100015,,,dbhids_else,Northeast Treatment Centers,NET Steps II,,http://netcenters.org/,,267-348-3550,267-348-3580,,7520 State Road,,Philadelphia,PA,19136,40.029456,-75.02666401,Yes,Yes,Yes,Yes,Yes,,,,False,False,False,,,,,,No,Yes,Yes,No,No,Yes,Yes,Yes,Yes,Yes,Yes,Yes,Yes,No,Yes,Yes,No,Yes,Yes,Yes,False,,,
65,100062,100026,,,,,dbhids_else,Northeast Treatment Centers (NET),Frankford,,http://netcenters.org/,,267-597-3921,267-597-3920,215-451-7100,4625 Frankford Avenue,2nd Floor,Philadelphia,PA,19124,40.01520002,-75.08480903,Yes,No,No,No,Yes,,,,False,,False,,,,,,Yes,Yes,Yes,No,No,No,Yes,Yes,Yes,Unclear,No,No,No,No,No,No,Unclear,No,Yes,Yes,False,,,
66,,100027,,,100053,,dbhids_coe,Pathways to Housing,Project HOME,,https://pathwaystohousingpa.org/,https://projecthome.org/integrated-medical-behavioral-health-services,215-390-1500,,,5201 Old York Rd,Suite 108,Philadelphia,PA,19141,40.032958,-75.144659,Yes,Yes,No,No,Yes,,,,,,False,,False,,Yes,Yes,Yes,Yes,Yes,,,No,No,,Yes,No,,,,,,,Yes,,,,False,,,
67,,100029,,,,100070,dbhids_coe,Penn Medicine,Mothers Matter Program,,https://www.med.upenn.edu/womenswellness/,https://www.pennmedicine.org/updates/blogs/womens-health/2018/march/mothers-matter-offers-compassionate-care-for-maternity-opiate-use,267-593-2969,,,3400 Spruce St,1 West Gates,Philadelphia,PA,19103,39.94998998,-75.19360504,Yes,No,No,No,Yes,,,[_] Reconcile DBHIDS/SAMHSA for outpatient yes/no,,,False,,,False,,,,,,,,No,Unclear,,,No,,,Yes,,,,,,,,False,,,
68,100129,100031,,,,,dbhids_else,PATH,"People Acting To Help, Inc.",,http://www.pathcenter.org,,215-728-4600,215-728-4565,,8220 Castor Avenue,,Philadelphia,PA,19152,40.0650587,-75.05319464,Yes,Yes,No,No,Yes,,,[_] Reconcile DBHIDS/SAMHSA for buprenorphine yes/no and naltrexone yes/no,False,,False,,,,,,Yes,Yes,No,No,Yes,No,Yes,Yes,No,Yes,No,No,No,Yes,No,No,No,No,Yes,Yes,False,,,
69,,100033,,,,100071,dbhids_coe,Prevention Point,Project HOME Primary Care in Rooms 4-5,,https://ppponline.org/,,215-634-5272,215-320-6187,,2913 Kensington Avenue,,Philadelphia,PA,19134,39.99272902,-75.11965603,Yes,Yes,No,No,Yes,,,,,,False,,False,False,Yes,Yes,Yes,Yes,Yes,,,No,No,,,No,,,,,,,Yes,,,,False,,,
70,,100034,,,100054,100072,dbhids_coe,Project HOME,Stephen Klein Wellness Center,Primary Care in Rooms 4-5,https://projecthome.org/stephen-klein-wellness-center,https://projecthome.org/integrated-medical-behavioral-health-services,215-320-6187 x5756,,,2144 Cecil B. Moore Avenue,,Philadelphia,PA,19121,39.98016601,-75.17080802,Yes,Yes,No,No,Yes,,,,,,False,,False,False,Yes,Yes,Yes,Yes,Yes,,,No,No,,,No,,,,,,,,,,,False,,,
71,100085,100035,,100018,,,dbhids_else,SOAR Corp,Recovery Center (Philadelphia Program),,https://www.soarcorp.org/,https://www.soarcorp.org/hours-of-operation,215-464-4450,866-616-4450,,9150 Marshall Street,Suite 2 and/or Suite 18,Philadelphia,PA,19114,40.07245022,-75.03190542,Unclear,No,Yes,Yes,Yes,,,[_] Reconcile DBHIDS/SAMHSA for buprenorphine no/yes,False,False,False,,,,,,No,Yes,No,Yes,No,Yes,Yes,Yes,Yes,Yes,No,Yes,Yes,No,Yes,No,Yes,No,Yes,Yes,False,,,
72,100003,100036,,100003,,100073,dbhids_coe,Jefferson University Hospitals,Family Center,Specialized Program for Pregnant Women,https://hospitals.jefferson.edu/departments-and-services/obstetrics-and-gynecology/programs-and-services/maternal-addiction-treatment.html,https://hospitals.jefferson.edu/find-a-location/locations/1233-locust-street.html,215-955-8577,215-955-3792,,1233 Locust Street,Suite 201 or 4th Floor,Philadelphia,PA,19107,39.94811499,-75.16194299,Yes,No,Yes,Yes,Yes,,,Women only,False,False,False,,,False,,,No,Yes,Yes,Yes,No,Yes,Yes,Yes,Yes,Yes,Yes,Yes,Yes,No,No,Yes,No,No,Yes,No,False,,,
73,100014,100037,,100004,,,dbhids_coe,Jefferson University Hospitals,Narcotic Addict Rehabilitation Program (NARP),,https://www.jefferson.edu/university/jmc/departments/psychiatry/clinical/programs.html,https://hospitals.jefferson.edu/departments-and-services/vickie-and-jack-farber-institute-for-neuroscience/programs/psychiatry-and-human-behavior/substance-abuse-programs.html,215-735-5979,215-790-9942,,1021 South 21st Street,NE Corner with Washington Avenue,Philadelphia,PA,19146,39.94000768,-75.17798687,Yes,No,Yes,Yes,Yes,,,,False,False,False,,,,,,Yes,Yes,Yes,Yes,No,Yes,Yes,No,Yes,Yes,No,Yes,No,No,No,No,Unclear,No,Yes,Yes,False,,,
74,,100038,,,,100074,dbhids_coe,Temple Wedge Opioid (TWO) Treatment Program,,,https://medicine.temple.edu/news/temple-launches-center-excellence-address-opioid-use-pregnancy,https://www.templehealth.org/locations/temple-university-hospital,215-707-3008,,,3401 North Broad Street,,Philadelphia,PA,19140,40.005339,-75.15073596,Yes,No,No,No,Yes,,,,,,False,,,False,,,,,,,,No,No,,,No,,,Yes,,,,,,,,False,,,
75,100044,100039,,,,,dbhids_coe,Wedge Recovery Centers,,,https://www.wedgepc.com/3609-north-broad-street/,,215-276-3922,,,3609 North Broad Street,,Philadelphia,PA,19140,40.00797901,-75.15108297,Yes,Yes,No,No,Yes,,,,False,,False,,,,,,No,Yes,Yes,No,No,Yes,Yes,Yes,Yes,Yes,No,No,No,No,No,No,Yes,Yes,Yes,Yes,False,,,
76,100027,100040,,,,,dbhids_coe,Wedge Recovery Centers,,,https://www.wedgepc.com/2009-south-broad-street/,,215-276-3922,,,2009 South Broad Street,,Philadelphia,PA,19148,39.92518999,-75.16905201,Yes,Yes,No,No,Yes,,,,False,,False,,,,,,No,Yes,Yes,No,No,Yes,Yes,Yes,Yes,Yes,No,No,No,No,No,No,No,Yes,Yes,Yes,False,,,
77,100058,100041,,,,,dbhids_coe,Wedge Recovery Centers,,,https://www.wedgepc.com/4243-frankford-ave/,,215-276-3922,,,4243 Frankford Avenue,,Philadelphia,PA,19124,40.00957702,-75.08885002,Yes,Yes,No,No,Yes,,,,False,,False,,,,,,No,Yes,Yes,No,No,Yes,Yes,Yes,Yes,Yes,No,No,No,No,No,No,Yes,Yes,Yes,Yes,False,,,
78,,,,,,100009,other_mat,Jefferson University Hospitals,,,https://hospitals.jefferson.edu/find-a-location/locations/1015-walnut-street.html,https://www.jefferson.edu/academics/colleges-schools-institutes/skmc/departments/family-medicine/fellowships/hospice-palliative/faculty.html,215-503-6337,,,1015 Walnut Street,Suite 401,Philadelphia,PA,19107,39.94879401,-75.15793099,Yes,,,,Yes,,,,,,,,,False,,,,,,,,,,,,,,,,,,,,,,,False,,,
79,100006,,,,,,samhsa_else,Jefferson University Hospitals,Outreach Program,,https://hospitals.jefferson.edu/departments-and-services/vickie-and-jack-farber-institute-for-neuroscience/programs/psychiatry-and-human-behavior/substance-abuse-programs.html,https://hospitals.jefferson.edu/find-a-location/locations/833-chestnut-street.html,215-503-2823,215-955-8856,,833 Chestnut Street East,Suite 210-E,Philadelphia,PA,19107,39.94979713,-75.15482953,Yes,Yes,No,No,Yes,,,,False,,,,,,,,No,Yes,No,Yes,No,No,Yes,Yes,Yes,Yes,No,Yes,No,No,No,No,No,Yes,Yes,Yes,False,,,
80,100011,,,,,,samhsa_else,Jefferson University Hospitals,Intensive Outpatient Program,,https://hospitals.jefferson.edu/departments-and-services/vickie-and-jack-farber-institute-for-neuroscience/programs/psychiatry-and-human-behavior/substance-abuse-programs.html,https://www.jefferson.edu/university/jmc/departments/psychiatry/clinical/programs.html,215-790-9942,215-790-9942 x262,215-735-5979 x262,1021 South 21st Street,2nd Floor,Philadelphia,PA,19146,39.94000768,-75.17798687,No,No,Yes,Yes,Yes,,,,False,,,,,,,,No,Yes,No,Yes,No,Yes,Yes,Yes,Yes,Yes,No,Yes,No,No,No,No,No,Yes,Yes,Yes,False,,,
81,,100020,,,,,dbhids_else,Merakey at Temple Health Episcopal Hospital,,,https://www.merakey.org/services/addiction-recovery,,215-634-2520,,,100 East Lehigh Avenue,,Philadelphia,PA,19125,39.98999999,-75.12924501,Yes,Yes,No,No,Yes,Unclear,,,,,False,,,,,,,,,,,Yes,Yes,,,Yes,,,,,,,,,,,False,,,
82,,,,,,100010,tbd_unclear,Northeast Treatment Centers (NET),North Counseling Center,,http://netcenters.org/services/addiction-recovery-programs/,,215-226-1600,,,2701 North Broad Street,,Philadelphia,PA,19132,39.99415101,-75.15391899,,,,,Unclear,,,,,,,,,False,,,,,,,,,,,,,,,,,,,,,,,True,,,
83,100002,,,,,,samhsa_else,Rehab After Work,Outpatient Rehab in Philadelphia,Center City Location,https://rehabafterwork.pyramidhealthcarepa.com/locations/pennsylvania/center-city-philadelphia/,,215-546-2200,610-644-6464,,1420 Walnut Street,Suite 500,Philadelphia,PA,19102,39.94916298,-75.16549901,Yes,Yes,No,No,Yes,,,,False,,,,,,,,Yes,No,No,Yes,No,Yes,Yes,Yes,No,Yes,No,Yes,Yes,Yes,Yes,Yes,No,Yes,Yes,Yes,False,,,
84,100007,,,,,,samhsa_else,Mazzoni Center,Behavioral Health Services,,https://www.mazzonicenter.org/,,215-563-0652 x248,,,1348 Bainbridge Street,,Philadelphia,PA,19147,39.94255,-75.16490498,Yes,Yes,No,No,Yes,,,,False,,,,,,,,No,Yes,Yes,Yes,No,Yes,Yes,No,No,Yes,No,No,No,No,No,Yes,No,No,Yes,Yes,False,,,
85,100010,,,,,,samhsa_else,Gaudenzia Inc.,Washington House,,https://www.gaudenzia.org/,,215-985-1200,215-985-1200 x2606,215-985-1200 x2605,1516 Washington Avenue,,Philadelphia,PA,19146,39.93813881,-75.16936099,No,Yes,No,No,Yes,,,,False,,,,,,,,No,Yes,Yes,Yes,No,Yes,Yes,Yes,Yes,Yes,Yes,Yes,No,No,No,No,No,No,Yes,Yes,False,,,
86,100022,,,,100031,,samhsa_else,GPHA,Al-Assist Behavioral Healthcare Center,,https://www.gphainc.org/locations/find-a-location-near-you/#al-assist-behavioral-healthcare-center,,215-339-1070,215-339-1079,,1401 South 4th Street,,Philadelphia,PA,19147,39.93060201,-75.15147801,Unclear,No,No,No,Unclear,,,,False,,,,False,,Yes,Yes,Unclear,Yes,Yes,Yes,No,No,Yes,Yes,Yes,Yes,No,Yes,No,No,No,No,Yes,Yes,Yes,Yes,False,,,
87,100023,,,,,,samhsa_else,"The Consortium, Inc.",Methadone Maintenance Program,,https://consortiuminc.org/addiction-services/,,215-596-8000,267-233-5875,215-596-5874 x1203,451 South University Avenue,,Philadelphia,PA,19104,39.94826101,-75.197984,Yes,Yes,Yes,Yes,Yes,,,,False,,,,,,Unclear,Yes,No,Yes,Yes,Yes,No,Yes,Yes,Yes,Yes,Yes,Yes,Yes,No,No,No,No,No,No,Yes,Yes,False,,"[_] Are Consortium patients able to get primary care at this address through FQHC (451 South University Ave, Suite 202 = Spectrum Health Services, acc. HRSA)? Should phone3 be 215-596-5876 (website)?",
88,,,,,,,tbd_unclear,"Spectrum Health Services, Inc.",The Consortium,,,,215-471-2761,,,451 South University Avenue,Suite 202,Philadelphia,PA,19104,39.94826101,-75.197984,Yes,,,,Unclear,,,,,,,,False,,Yes,Yes,Yes,Yes,Yes,,,,,,,,,,,,,,,,,,True,Data needs review,"[_] How/Is the FQHC Spectrum Health Services related to The Consortium at this address (from HRSA, but not listed at https://www.spectrumhs.org/locations/)?",
89,"[100026,100029]",,,100005,,100075,samhsa_otp,Philadelphia Veterans Affairs Medical Center,Corporal Michael J. Crescenz VAMC,,https://www.philadelphia.va.gov/services/Behavioral_Health.asp,,215-823-5809,215-823-4014,215-823-4070,3900 Woodland Avenue,,Philadelphia,PA,19104,39.94819001,-75.19998601,Yes,Yes,Yes,Yes,Yes,,,,False,False,,,,False,,,Yes,No,No,No,No,No,Yes,Yes,Yes,Yes,No,Yes,Yes,No,Yes,Yes,No,Yes,Yes,Yes,False,,,
90,100028,,,,,,samhsa_else,Penn Medicine,Total Recovery,,https://www.med.upenn.edu/recovery/,,215-662-8747,215-662-8724,,4040 Market St,"2nd Floor, Suites 200 and 220",Philadelphia,PA,19104,39.95693598,-75.20344799,Yes,Yes,No,No,Yes,,,,False,,,,,,,,Yes,Yes,Yes,Yes,Yes,Yes,Yes,Yes,Yes,Yes,No,No,No,No,No,No,No,No,Yes,Yes,False,,,
91,100031,,,100013,,,samhsa_otp,Kensington Hospital,Methadone Maintenance/Outpatient Treatment Program,,https://kensingtonhospital.org/,,215-426-8100 x7001,215-426-8100 x6005,215-426-8100 x7002,2100 North Front Street,,Philadelphia,PA,19122,39.98176,-75.13308099,No,No,Yes,Yes,Yes,,,,False,False,,,,,,,Yes,Yes,No,No,No,No,Yes,Yes,Yes,No,No,Yes,No,No,No,No,Yes,Yes,Yes,Yes,False,,,
92,100032,,,,,,samhsa_else,Center For Family Services,Family First Program,,https://www.centerffs.org/,,856-963-0200,877-922-2377,,594 Benson St,,Camden,NJ,08103,39.94062501,-75.11772903,No,Yes,No,No,Yes,,,,False,,,,,,,,No,No,No,No,Yes,Yes,Yes,Yes,No,No,Yes,No,No,No,No,No,No,No,Yes,Yes,False,,,
93,100033,,,,,,samhsa_else,SODAT of New Jersey Inc.,Services to Overcome Drug Abuse Among Teenagers,,http://www.sodat.org/,,856-964-5000,856-964-2940,,805 Federal St #815,2nd Floor,Camden,NJ,08103,39.94440701,-75.116142,No,Yes,No,No,Yes,,,,False,,,,,,,,Yes,Yes,No,No,No,Yes,Yes,No,Yes,Yes,Yes,Yes,No,Yes,Yes,Yes,No,No,Yes,Yes,False,,,
94,100035,,,,,,ba_monthly,Horizon House,Susquehanna Park Residential Treatment,,https://www.hhinc.org/behavioral-health-services/residential-treatment/,,215-765-8051 x149,215-765-8051 x101,,2137 North 33rd Street,,Philadelphia,PA,19121,39.98998201,-75.18636802,Yes,Yes,No,No,Yes,,,"Men only | For bed availability, see: ""Journey of Hope Project""",False,,,,,,,,No,Yes,No,Yes,Yes,No,No,Yes,Yes,Yes,No,Yes,No,No,Yes,Yes,No,No,No,Yes,False,,,
95,100064,,,,100014,,samhsa_else,DVCH & Merakey,Fairmount Primary Care Center at Sharon Hill,,https://dvch.org/fairmount-primary-sharon-hill/,https://www.merakey.org/services/addiction-recovery,610-278-7381,610-534-3636,610-537-1765,800 Chester Pike,,Sharon Hill,PA,19079,39.91184499,-75.269876,Yes,Yes,No,No,Yes,,,,False,,,,False,,Yes,Yes,Yes,Yes,Unclear,No,No,Yes,Yes,Yes,Yes,Yes,No,No,No,No,No,No,No,Yes,Yes,Yes,False,,Updated phone2 from Merakey website 2021-07-19 (https://www.merakey.org/locations?page=&state=PA&zip=19079&distance=25&state=#search-results),
96,100039,,,,,,samhsa_else,Asociación Puertorriqueños en Marcha,,,https://apmphila.org/how-we-help/health/,,267-296-7220,215-259-3373,,2921 North 5th Street,,Philadelphia,PA,19133,39.99567299,-75.13913398,Yes,Yes,No,No,Yes,,,,False,,,,,,,,Yes,Yes,No,Yes,No,Yes,Yes,Yes,Yes,Yes,No,Yes,No,No,No,No,Yes,No,Yes,Yes,False,,,
97,100038,,,,,,samhsa_else,Casa de Consejeria y Salud Integral,,,https://www.casacares.net/,,215-501-7629,,,616 West Lehigh Avenue,,Philadelphia,PA,19133,39.99217401,-75.14280702,Yes,No,No,No,Yes,,,,False,,,,,,,,No,Yes,Yes,No,No,Yes,Yes,Yes,Yes,No,No,Yes,No,Yes,No,No,Yes,No,Yes,Yes,False,,,
98,100070,,,,,,samhsa_else,Gaudenzia Inc.,,,https://www.gaudenzia.org/,,215-924-6322 x2851,215-238-2163 x2204,,1300 East Tulpehocken Street,,Philadelphia,PA,19138,40.05688651,-75.16424879,Yes,Yes,No,No,Yes,,,Women only,False,,,,,,,,Yes,Yes,Yes,No,No,No,No,Yes,Yes,Yes,Yes,Yes,Yes,No,No,Yes,No,No,Yes,No,False,,,
99,100059,,,,,,samhsa_else,Gaudenzia Inc.,Outreach II,,https://www.gaudenzia.org/,,215-849-7200 x2481,215-849-7200,,39 East Schoolhouse Lane,,Philadelphia,PA,19144,40.03519002,-75.17218902,Yes,Yes,No,No,Yes,,,,False,,,,,,,,Yes,Yes,No,Yes,Yes,Yes,Yes,Yes,Yes,Yes,Yes,No,No,No,No,No,No,No,Yes,Yes,False,,,
100,100055,,,,,,samhsa_else,Gaudenzia Inc.,ReEntry House,,https://www.gaudenzia.org/,,215-438-5082,484-678-7358,,5401 Wayne Avenue,,Philadelphia,PA,19144,40.029585,-75.174557,Yes,Yes,No,No,Yes,,,Men only,False,,,,,,,,Yes,Yes,No,Yes,No,No,No,Yes,Yes,Yes,No,Yes,No,No,Yes,Yes,Yes,Yes,No,Yes,False,,,
101,100040,,,,,,samhsa_else,Gaudenzia Inc.,Broad Street Facility,,https://www.gaudenzia.org/,,215-223-9460 x2406,215-223-9460 x2416,215-565-6312,3025 North Broad Street,,Philadelphia,PA,19132,39.99925802,-75.15306102,No,Yes,No,No,Yes,,,,False,,,,,,,,No,Yes,Yes,Yes,No,No,No,Yes,Yes,Yes,No,No,No,No,No,No,No,No,Yes,Yes,False,,,
102,100101,,,,,,samhsa_else,Gaudenzia Inc.,Together House/People With Hope,,https://www.gaudenzia.org/,,215-238-2163 x2216,215-238-2163 x2293,215-413-8268 x2242,1306 Spring Garden Street,8th Floor,Philadelphia,PA,19123,39.961763,-75.15979999,Yes,Yes,No,No,Yes,,,,False,,,,,,,,No,Yes,No,Yes,No,Yes,Yes,Yes,Yes,Yes,No,Yes,No,No,No,Yes,No,No,Yes,Yes,True,Source removed record,Might be closed: listing removed from SAMHSA in 2021q1 or 2021q2,
103,100103,,,,,,samhsa_else,Gaudenzia Inc.,,,https://www.gaudenzia.org/,,215-228-7595,215-228-7977,,1834 West Tioga Street,,Philadelphia,PA,19140,40.00693999,-75.15974299,Yes,Yes,No,No,Yes,,,,False,,,,,,,,No,Yes,Yes,Yes,Yes,No,No,Yes,Yes,Yes,Yes,Yes,Yes,Yes,Yes,Yes,No,Yes,Yes,Yes,True,Source removed record,Might be closed: listing removed from SAMHSA in 2021q1 or 2021q2,
104,100077,,,100017,,,samhsa_otp,The Healing Way,,,http://thehealingway.net/,,215-335-3520 x110,215-335-3520,,7900 Frankford Avenue,,Philadelphia,PA,19136,40.041112,-75.02990002,No,No,Yes,Yes,Yes,,,,False,False,,,,,,,No,No,No,No,No,No,Yes,No,Yes,Yes,No,Yes,No,No,No,No,Yes,No,Yes,Yes,False,,,
105,100063,,,,,,samhsa_else,"Intercommunity Action, Inc. (Interact)",Greenridge Counseling Center,,https://intercommunityaction.org/,,215-487-1330,,,6122 Ridge Avenue,,Philadelphia,PA,19128,40.03379799,-75.21604197,No,Yes,No,No,Yes,,,,False,,,,,,,,Yes,Yes,Yes,Yes,Yes,No,Yes,Yes,No,Yes,No,No,No,No,No,No,No,No,Yes,Yes,False,,,
106,100083,,,,,,samhsa_else,Livengrin Counseling Center,,,https://livengrin.org/,,215-638-5200,,,9140 Academy Road,,Philadelphia,PA,19114,40.05534099,-75.00792501,No,Yes,No,No,Yes,,,,False,,,,,,,,No,No,No,Yes,No,Yes,Yes,No,No,Yes,No,Yes,No,No,No,No,No,No,Yes,Yes,False,,,
107,100049,,,,,100076,samhsa_else,Belmont Behavioral Hospital,,,https://www.belmontbehavioral.com/,,215-877-2000,215-581-3700,,4200 Monument Road,,Philadelphia,PA,19131,39.999924,-75.21511401,Unclear,Yes,No,No,Yes,,,"SAMHSA Find Treatment lists no buprenorphine, but SAMHSA Buprenorphine Practitioner directory lists several waivered providers at this address",False,,,,,False,,,Yes,Yes,Yes,Yes,No,No,No,No,No,Yes,No,No,No,No,No,No,No,Yes,Yes,Yes,False,,,
108,100041,,,,,100077,samhsa_else,Southwest Nu-Stop,Recovery and Educational Center,,https://www.swnustop.com/,,215-729-2014,,,5616 Woodland Avenue,,Philadelphia,PA,19143,39.93381098,-75.22207803,Yes,Yes,No,No,Yes,,,,False,,,,,False,,,No,Yes,No,No,No,Yes,Yes,Yes,Yes,No,No,No,No,No,No,No,No,No,Yes,Yes,False,,,
109,100060,,,,,,samhsa_else,The Bridge Philadelphia,(a PHMC affiliate),,https://thebridge.phmc.org/,,215-342-5000,215-342-5000 x7425,215-342-5000 x7424,1100 Adams Avenue,,Philadelphia,PA,19124,40.01697401,-75.09466799,No,No,No,No,Unclear,,,,False,,,,,,,,No,Yes,Yes,No,No,Yes,Yes,Yes,Yes,Yes,Yes,Yes,No,Yes,No,No,Yes,Yes,Yes,Yes,True,No MAT?,,
110,100046,,,,,,samhsa_else,Women's Institute for Family Health,,,https://www.wifamilyhealth.org/,,215-747-2391,,,5936 Chestnut Street,1st Floor,Philadelphia,PA,19139,39.96017299,-75.24053699,Yes,No,No,No,Yes,,,,False,,,,,,,,No,Yes,Yes,Yes,No,Yes,Yes,Yes,No,Yes,Yes,Yes,Yes,No,Yes,Yes,Yes,No,Yes,Yes,False,,,
111,100082,,,,,,samhsa_else,Unity Place,,,https://unityplace1.com/,,856-424-4142,,,1 Keystone Ave,Suite 100,Cherry Hill,NJ,08003,39.90781099,-74.967497,Yes,Yes,No,No,Yes,,,,False,,,,,,,,Yes,Yes,No,Yes,No,Yes,Yes,Yes,Yes,Yes,No,No,No,No,No,No,No,No,Yes,Yes,False,,,
112,"[100089,100090]",,,100165,,,samhsa_otp,Crozer Chester Medical Center,First Steps,,https://www.crozerhealth.org/behavioral-health,https://www.crozerhealth.org/behavioral-health,610-447-2000,610-619-8600,610-619-7370,1 Medical Center Boulevard,,Chester,PA,19013,39.85601598,-75.36816899,Yes,Yes,Yes,Yes,Yes,,,See 2 SAMHSA entries for differences (program with methadone includes payment assistance and domestic violence safety assistance but not telehealth),False,False,,,,,,,Yes,Yes,Yes,Yes,Yes,No,No,Yes,Yes,Yes,No,Yes,Yes,No,Yes,Yes,Yes,Yes,Yes,Yes,False,,[_] Do 2 SAMHSA entries describe different programs or is one out of date?,
113,100080,,,,,,samhsa_else,Bravo Medical LLC,,,https://recoverycentersofamerica.com/locations/bravo-medical/,,856-679-2500,,,1200 South White Horse Pike,10 Somerdale Square,Somerdale,NJ,08083,39.83509999,-75.00508103,Yes,No,Yes,Yes,Yes,,,,False,,,,,,,,No,Yes,No,No,No,Yes,Yes,No,No,No,No,No,Yes,No,No,No,No,No,Yes,Yes,False,,,
114,100098,,,,,,samhsa_else,Sobriety Solutions of Pennsylvania,,,https://sobrietysolutions.com/,,833-880-4357,,,1000 Germantown Pike,Suite E-1,Plymouth Meeting,PA,19462,40.12922802,-75.29895098,No,Yes,No,No,Yes,,,,False,,,,,,,,Yes,No,No,Yes,No,Yes,Yes,Yes,Yes,No,No,Yes,No,No,Yes,Yes,No,No,Yes,Yes,False,,,
115,100050,,,,,,samhsa_else,"My Father's House, Inc.",,,https://www.mfhinc.org/,,856-742-0900,,,104 North King Street,,Gloucester City,NJ,08030,39.899874,-75.12392401,No,Yes,No,No,Yes,,,,False,,,,,,,,No,Yes,No,No,Yes,Yes,Yes,Yes,Yes,Yes,No,Yes,Yes,Yes,Yes,Yes,Yes,No,Yes,Yes,False,,,
116,100084,,,,,,samhsa_else,Center for Family Services,Substance Abuse Treatment Services,,https://www.centerffs.org/our-services/addiction-and-recovery,,856-428-5688,877-922-2377,856-428-5688 x100,108 Somerdale Road,,Voorhees,NJ,08043,39.85142702,-75.005766,No,Yes,No,No,Yes,,,,False,,,,,,,,No,Yes,No,No,Yes,Yes,Yes,No,No,Yes,No,No,No,No,No,No,No,Yes,Yes,Yes,False,,,
117,,,,100021,,100078,samhsa_otp,"Men & Women for Human Excellence, Inc. (MWFHE)",Opioid Treatment Program,,https://mwfhe.org/,,"267-639-9265 (referral line, 8 AM to 8 PM, 7 days)",215-594-3581 (24-hour hotline),215-769-7045,2603 West Cecil B. Moore Avenue,,Philadelphia,PA,19121,39.98140402,-75.17742604,,,,Yes,Yes,,,Website lists distinct contact information for 2603 West Cecil B. Moore Ave and 2600 West Cecil B. Moore Ave ,,False,,,,False,,,,,,,,,,,,,,,,,,,,,,,False,,,
118,100072,,,,,,samhsa_else,SODAT of New Jersey Inc.,Services to Overcome Drug Abuse Among Teenagers,,http://www.sodat.org/,,856-845-6363,888-792-4383,,124 North Broad Street,,Deptford,NJ,08096,39.84065282,-75.15134565,Yes,Yes,No,No,Yes,,,,False,,,,,,,,Yes,Yes,No,No,Yes,Yes,Yes,No,Yes,Yes,No,Yes,No,Yes,No,No,No,No,Yes,Yes,False,,,
119,100081,,,,,,samhsa_else,Victory Bay Recovery Center,,,https://www.victorybayrecovery.com/,,856-282-2050,888-445-0098,,1395 Chews Landing Road,,Clementon,NJ,08021,39.82434855,-75.04748722,Yes,Yes,No,No,Yes,,,,False,,,,,,,,Yes,No,No,Yes,No,Yes,Yes,Yes,Yes,Yes,Yes,Yes,No,No,Yes,No,No,No,Yes,Yes,False,,,
120,100073,,,,,,samhsa_else,Sunrise Detox Cherry Hill,,,https://sunrisedetoxcherryhill.com/,,856-795-0036,888-443-3869,,1417 Brace Road,,Cherry Hill,NJ,08034,39.891663,-75.01607499,Yes,No,No,No,Yes,,,,False,,,,,,,,No,No,No,Yes,No,No,No,Yes,No,No,No,No,No,No,No,No,No,No,Yes,Yes,False,,,
121,100087,,,,,,samhsa_else,Seabrook,Cherry Hill Outpatient Recovery,,https://www.seabrook.org/,,856-663-0010,856-455-7575 x1515,,1930 Marlton Pike East,,Cherry Hill,NJ,08003,39.90233099,-74.96348299,Yes,Yes,No,No,Yes,,,,False,,,,,,,,Yes,No,No,Yes,No,Yes,Yes,Yes,Yes,Yes,No,No,No,No,No,No,No,No,Yes,Yes,False,,,
122,100093,,,100130,,100056,samhsa_otp,Southeastern Pennsylvania Comprehensive Treatment Centers,Huntingdon Valley CTC,,https://www.sepennctc.com/location/huntingdon-valley/,,855-613-6098,,,2755 Philmont Avenue,,Huntingdon Valley,PA,19006,40.121653,-75.04771399,Yes,No,Yes,Yes,Yes,,,,False,False,,,,False,,,Yes,Yes,Yes,Yes,No,No,Yes,No,No,No,No,No,No,No,No,No,No,Yes,Yes,Yes,False,,[_] OTP at this address has changed its name and affiliation; this listing provides more recent website and phone than SAMHSA,
123,100088,,,100112,,,samhsa_otp,Crozer Health,Community Campus,,https://www.crozerhealth.org/community,https://www.crozerhealth.org/behavioral-health,610-619-8600,610-619-7370,,301 West 15th Street,,Chester,PA,19013,39.85797277,-75.36595165,Yes,Yes,Yes,Yes,Yes,,,,False,False,,,,,,,Yes,Yes,Yes,Yes,No,Yes,Yes,Yes,Yes,Yes,Yes,No,Yes,Yes,No,No,No,Yes,Yes,Yes,False,,,
124,100099,,,100149,,100079,samhsa_otp,Montgomery County Recovery Center,,,https://www.rhd.org/program/montgomery-county-recovery-center/,,610-272-3710 x201,610-272-3710 x204,,316 DeKalb Street,,Norristown,PA,19401,40.11403397,-75.34205343,No,Yes,Yes,Yes,Yes,,,,False,False,,,,False,,,No,Yes,No,Yes,No,No,Yes,No,Yes,No,No,Yes,Yes,No,No,No,No,No,Yes,Yes,False,,,
125,100054,,,100136,,,samhsa_otp,SOAR Corp,Recovery Center (Lansdowne Program),,https://www.soarcorp.org/,https://www.soarcorp.org/hours-of-operation,610-622-1114,866-616-4450,215-464-4450,33 Williams Street,,Lansdowne,PA,19050,39.94021798,-75.255351,Yes,No,Yes,Yes,Yes,,,,False,False,,,,,,,No,Yes,No,Yes,No,Yes,Yes,Yes,Yes,No,No,Yes,Yes,No,Yes,No,Yes,No,Yes,Yes,False,,,
126,100079,,,,,,samhsa_else,Penn Medicine Princeton House,Behavioral Health/Moorestown,,https://www.princetonhcs.org/care-services/princeton-house-behavioral-health,,856-779-2300,888-437-1610 (admissions),,351 New Albany Road,,Moorestown,NJ,08057,39.96708802,-74.97269897,No,Yes,No,No,Yes,,,,False,,,,,,,,No,Yes,Yes,Yes,No,Yes,Yes,Yes,No,Yes,No,Yes,Yes,Yes,Yes,Yes,No,No,Yes,Yes,False,,,
127,100074,,,,,,samhsa_else,My Friend's House,,,https://www.mfhrecovery.com/,,856-669-6900,856-669-6901,877-215-1880,371 Glassboro Road,,Woodbury Heights,NJ,08097,39.82262701,-75.15087996,Yes,Yes,No,No,Yes,,,,False,,,,,,,,No,Yes,No,Yes,No,Yes,Yes,Yes,Yes,Yes,No,No,No,No,No,No,No,No,Yes,Yes,False,,,
128,100094,,,,,,samhsa_else,Key Recovery Outpatient Services,,,https://keystonecenter.net/,,484-490-1060,,,5000 Hilltop Drive,,Brookhaven,PA,19015,39.88096501,-75.39629698,Yes,No,No,No,Yes,,,,False,,,,,,,,Yes,Yes,No,Yes,No,Yes,Yes,No,No,Yes,No,No,No,Yes,No,Yes,No,Yes,Yes,Yes,False,,,
129,100037,,,,,,samhsa_else,Camden Treatment Associates,,,https://camdentreatment.com/,,856-338-1811,,,508 Atlantic Avenue,,Camden,NJ,08104,39.92843001,-75.11845197,No,No,Yes,Yes,Yes,,,,False,,,,,,,,No,Yes,Yes,No,No,Yes,Yes,No,No,No,No,No,Yes,No,No,No,Yes,No,Yes,Yes,False,,,
130,100096,,,,,,samhsa_else,Recovery at the Crossroads LLC,,,https://www.racnj.com/,,609-570-2525,,,509 NJ-Route 168,,Blackwood,NJ,08012,39.77236354,-75.05120608,No,Yes,No,No,Yes,,,,False,,,,,,,,Yes,Yes,No,Yes,No,Yes,Yes,No,Yes,No,No,No,No,No,Yes,No,No,No,Yes,Yes,False,,,
131,100071,,,,,,samhsa_else,Rehab After Work,Havertown Falcon Center,,https://rehabafterwork.pyramidhealthcarepa.com/locations/pennsylvania/havertown/,,888-694-9996,,,525 West Chester Pike,Suite 205,Havertown,PA,19083,39.97116598,-75.30641003,No,No,No,No,Unclear,,,,False,,,,,,,,No,No,No,Yes,No,Yes,Yes,No,No,Yes,No,No,No,No,No,No,No,No,Yes,Yes,False,,,
132,100086,,,,,100080,samhsa_else,Recovery Centers of America,Lighthouse Voorhees Outpatient,,http://recoverycentersofamerica.com/locations/lighthouse/outpatient/,,856-559-2190,844-242-7956,,526 South Burnt Mill Road,,Voorhees,NJ,08043,39.84752398,-75.005939,No,Yes,No,No,Yes,,,,False,,,,,False,,,Yes,No,No,Yes,No,Yes,Yes,Yes,Yes,Yes,No,Yes,No,No,No,No,No,Yes,Yes,Yes,False,,,
133,100092,,,,,100081,samhsa_else,Livengrin Counseling Center,,,https://livengrin.org/,,215-638-5200,866-753-9097,,550 Pinetown Road,Suite 150,Fort Washington,PA,19034,40.14099998,-75.194835,No,Yes,No,No,Yes,,,,False,,,,,False,,,No,Yes,No,Yes,No,Yes,Yes,No,No,No,No,No,No,No,No,No,No,No,Yes,Yes,False,,,
134,100076,,,,,,samhsa_else,Main Line Health,Mirmont Outpatient Center,,https://www.mainlinehealth.org/locations/mirmont-outpatient-center-broomall,,484-476-1800,888-227-3898,,600 Abbott Drive,,Broomall,PA,19008,39.96054402,-75.337497,Yes,Yes,No,No,Yes,,,,False,,,,,,,,No,Yes,Yes,Yes,No,Yes,Yes,Yes,No,Yes,No,No,No,Yes,No,No,No,No,Yes,Yes,False,,,
135,100061,,,,,,samhsa_else,Recovery Village Cherry Hill at Cooper,,,https://www.southjerseyrecovery.com/,,305-785-5520,,,761 Cuthbert Boulevard,,Cherry Hill,NJ,08002,39.93066899,-75.05479402,Yes,Yes,No,No,Yes,,,,False,,,,,,,,Yes,No,No,Yes,No,Yes,Yes,No,No,No,No,No,No,No,No,No,No,No,Yes,Yes,False,,,
136,100052,,,,,100082,samhsa_else,Delaware Valley Medical,,,https://pinnacletreatment.com/location/new-jersey/pennsauken/delaware-valley-medical/,,856-665-5100 x1410,856-665-5100,,7980 South Crescent Boulevard,Route 130,Pennsauken,NJ,08109,39.92947402,-75.082979,Yes,No,Yes,Yes,Yes,,,,False,,,,,False,,,No,Yes,Yes,Yes,No,Yes,Yes,No,Yes,No,No,Yes,Yes,No,No,No,Yes,No,Yes,Yes,False,,,
137,100078,,,,,,samhsa_else,RHD,Lower Merion Counseling & Mobile Services,,https://www.rhd.org/lmcms/,,610-520-1510,610-520-1510 x184,,850 West Lancaster Avenue,2nd Floor,Bryn Mawr,PA,19010,40.02206899,-75.32016599,No,Yes,No,No,Yes,,,,False,,,,,,,,Yes,Yes,Yes,Yes,No,No,Yes,No,Yes,Yes,No,Yes,Yes,No,No,No,No,No,Yes,Yes,False,,,
138,100068,,,,,,samhsa_else,Harwood House,,,https://www.harwoodhouse.us/,,610-853-3440,,,9200 West Chester Pike,,Upper Darby,PA,19082,39.967876,-75.29247696,No,Yes,No,No,Yes,,,Men only,False,,,,,,,,No,Yes,No,No,No,No,No,No,Yes,Yes,No,No,No,No,No,No,No,No,No,Yes,False,,,
139,100091,,,,,100083,samhsa_else,Crozer Health,First Steps Treatment Center,,https://www.crozerhealth.org/locations/practices/f/first-steps-treatment-center/,,877-257-8377,610-619-8817,610-619-8813,One Medical Center Boulevard,,Chester,PA,19013,39.85601598,-75.36816899,Yes,Yes,Yes,Yes,Yes,,,,False,,,,,False,,,No,Yes,Yes,Yes,No,No,No,No,Yes,No,No,No,Yes,No,No,No,No,No,Yes,Yes,False,,,
140,,,,,100001,100133,tbd_unclear,City of Philadelphia Public Health,"Ambulatory Health Services, Main Admin Office",,https://www.phila.gov/departments/department-of-public-health/,,215-685-4758,,,1101 Market Street,8th Floor,Philadelphia,PA,19107,39.95213399,-75.15845301,,,,,Unclear,,,,,,,,False,False,Yes,,,,,,,,,,,,,,,,,,,,,,True,Not a practice site,,
141,,,,,100002,100084,fqhc_else,City of Philadelphia Public Health,District Health Center #2,,https://www.phila.gov/services/mental-physical-health/city-health-centers/,,215-685-1803,215-685-1810,,1700 South Broad Street,Unit 201,Philadelphia,PA,19145,39.92895099,-75.16937103,Yes,,,,Yes,,,,,,,,False,False,Yes,Yes,No,Yes,Yes,,,,,,,,,,,,,,,,,,False,,,
142,,,,,100003,100085,fqhc_else,City of Philadelphia Public Health,District Health Center #3,,https://www.phila.gov/services/mental-physical-health/city-health-centers/,,215-685-7504,215-685-7522,,555 South 43rd Street,,Philadelphia,PA,19104,39.94894501,-75.208971,Yes,,,,Yes,,,,,,,,False,False,Yes,Yes,No,Yes,Yes,,,,,,,,,,,,,,,,,,False,,,
143,,,,,100004,100086,fqhc_else,City of Philadelphia Public Health,District Health Center #4,,https://www.phila.gov/services/mental-physical-health/city-health-centers/,,215-685-7601,215-685-7630,,4400 Haverford Avenue,,Philadelphia,PA,19104,39.96252819,-75.21063116,Yes,,,,Yes,,,,,,,,False,False,Yes,Yes,No,Yes,Yes,,,,,,,,,,,,,,,,,,False,,,
144,,,,,100005,100087,fqhc_else,City of Philadelphia Public Health,District Health Center #5,,https://www.phila.gov/services/mental-physical-health/city-health-centers/,,215-685-2933,215-685-2973,,1900 North 20th Street,,Philadelphia,PA,19121,39.98317901,-75.16692997,Yes,,,,Yes,,,,,,,,False,False,Yes,Yes,No,Yes,Yes,,,,,,,,,,,,,,,,,,False,,,
145,,,,,100006,100088,fqhc_else,City of Philadelphia Public Health,District Health Center #6,,https://www.phila.gov/services/mental-physical-health/city-health-centers/,,215-685-3800,215-685-3803,,321 West Girard Avenue,,Philadelphia,PA,19123,39.96991853,-75.14227521,Yes,,,,Yes,,,,,,,,False,False,Yes,Yes,Yes,Yes,Yes,,,,,,,,,,,,,,,,,,False,,,
146,,,,,100007,100089,fqhc_else,City of Philadelphia Public Health,District Health Center #9,,https://www.phila.gov/services/mental-physical-health/city-health-centers/,,215-685-5701,215-685-5747,,131 East Chelten Avenue,,Philadelphia,PA,19144,40.0379496,-75.17267458,Yes,,,,Yes,,,,,,,,False,False,Yes,Yes,No,Yes,Yes,,,,,,,,,,,,,,,,,,False,,,
147,,,,,100008,100090,fqhc_else,City of Philadelphia Public Health,District Health Center #10,,https://www.phila.gov/services/mental-physical-health/city-health-centers/,,215-685-0639,,,2230 Cottman Avenue,,Philadelphia,PA,19149,40.04814199,-75.06149401,Yes,,,,Yes,,,,,,,,False,False,Yes,Yes,Yes,Yes,Yes,,,,,,,,,,,,,,,,,,False,,,
148,,,,,,100132,tbd_unclear,City of Philadelphia Public Health,Temporary Site - Health Center 10 Annex,,https://www.phila.gov/services/mental-physical-health/city-health-centers/,,215-685-6769,,,2248 Cottman Avenue,,Philadelphia,PA,19149,40.04774699,-75.06070703,,,,,Unclear,,,,,,,,False,False,Yes,Yes,Yes,Yes,Yes,,,,,,,,,,,,,,,,,,True,Data needs review,,
149,,,,,100009,100091,fqhc_else,City of Philadelphia Public Health,Strawberry Mansion Health Center,,https://www.phila.gov/services/mental-physical-health/city-health-centers/,,215-685-2400,215-685-2411,,2840 West Dauphin Street,,Philadelphia,PA,19132,39.99084383,-75.17931232,Yes,,,,Yes,,,,,,,,False,False,Yes,Yes,No,Yes,Yes,,,,,,,,,,,,,,,,,,False,,,
150,,,,,"[100019,100020]",100134,tbd_unclear,DVCH,Fairmount Primary Care Center,,https://dvch.org/fairmount-primary/,,215-235-9600,,,1412 Fairmount Avenue,2nd Floor,Philadelphia,PA,19130,39.96682399,-75.16141199,,,,,Unclear,,,,,,,,False,False,Yes,Yes,Yes,Yes,Yes,,,,,,,,,,,,,,,,,,True,Data needs review,,
151,,,,,100012,100092,fqhc_else,DVCH,Fairmount Primary Care Center at Girard Medical Center,,https://dvch.org/fairmount-primary-girard/,,215-827-8010,215-235-9600,,801 West Girard Avenue,,Philadelphia,PA,19122,39.97137201,-75.14977598,Yes,,,,Yes,,,,,,,,False,False,Yes,Yes,Yes,Yes,Yes,,,,,,,,,,,,,,,,,,False,,,
152,,,,,100013,100136,tbd_unclear,DVCH,Fairmount Primary Care Center at Horizon House,,https://dvch.org/fairmount-primary-horizon-house/,,215-222-2466,,,5901 Market Street,,Philadelphia,PA,19139,39.96207099,-75.23911902,,,,,Unclear,,,,,,,,False,False,Yes,Yes,Yes,Yes,Yes,,,,,,,,,,,,,,,,,,True,Data needs review,"Compare oid 227 at 120 South 30th St, 19104 (matches website here: https://dvch.org/fairmount-primary-horizon-house/ but not here: https://dvch.org/contact-dvch/) | See oid 213 for Horizon House website",
153,,,,,100015,100093,fqhc_else,DVCH,Maria de los Santos Health Center,,https://dvch.org/maria-de-los-santos-health-center/,,215-291-2500,,,401 West Allegheny Avenue,,Philadelphia,PA,19133,39.99992798,-75.13683701,Yes,,,,Yes,,,,,,,,False,False,Yes,Yes,Yes,Yes,Yes,,,,,,,,,,,,,,,,,,False,,,
154,,,,,100016,100135,tbd_unclear,DVCH,Maria de los Santos Women's Health Center,,https://dvch.org/maria-de-los-santos-womens-health/,,215-207-0522,215-291-2500,,400 West Allegheny Avenue,Unit B-5,Philadelphia,PA,19133,39.999249,-75.136477,,,,,Unclear,,,,,,,,False,False,Yes,Yes,Yes,Yes,Yes,,,,,,,,,,,,,,,,,,True,Data needs review,,
155,,,,,100017,100138,tbd_unclear,DVCH,Norristown Regional Health Center,,https://dvch.org/norristown-regional-health/,,610-278-7787,,,1401 DeKalb Street,,Norristown,PA,19401,40.12375698,-75.33382104,,,,,Unclear,,,,,,,,False,False,Yes,Yes,Yes,Yes,Yes,,,,,,,,,,,,,,,,,,True,Data needs review,,
156,,,,,100018,100137,tbd_unclear,DVCH,Parkview Health Center,,https://dvch.org/parkview-health-center/,,215-537-7695,,,841 East Hunting Park Avenue,2nd Floor,Philadelphia,PA,19124,40.012076,-75.11035204,,,,,Unclear,,,,,,,,False,False,Yes,Yes,Yes,Yes,Yes,,,,,,,,,,,,,,,,,,True,Data needs review,,
157,,,,,"[100024,100025]",100094,fqhc_else,Esperanza,Hunting Park Site,and Main Admin Office,https://esperanzahealth.com/,,215-302-3600,215-302-3150 (office),,4417 North 6th Street,,Philadelphia,PA,19140,40.01893298,-75.13652897,Yes,,,,Yes,,,,,,,,False,False,Yes,Yes,Yes,Yes,Yes,,,,,,,,,,,,,,,,,,False,,,
158,,,,,100021,100095,fqhc_else,Esperanza,Kensington Site,,https://esperanzahealth.com/,,215-302-3600,215-831-1100,,861 East Allegheny Avenue,,Philadelphia,PA,19134,39.99678799,-75.11348201,Yes,,,,Yes,,,,,,,,False,False,Yes,Yes,Yes,Yes,Yes,,,,,,,,,,,,,,,,,,False,,,
159,,,,,100022,100140,tbd_unclear,Esperanza,Fifth Street Site,,https://esperanzahealth.com/,,215-302-3600,215-221-6633,,2940 North 5th Street,,Philadelphia,PA,19133,39.99616501,-75.13955098,,,,,Unclear,,,,,,,,False,False,Yes,Yes,Yes,Yes,Yes,,,,,,,,,,,,,,,,,,True,Data needs review,,
160,,,,,100023,100139,other_mat,Esperanza,Kensington & Allegheny,,https://esperanzahealth.com/,,215-831-1100,215-302-3600,,3156 Kensington Avenue,,Philadelphia,PA,19134,39.99630201,-75.11431902,Yes,,,,Yes,,,,,,,,False,False,Yes,Yes,,,,,,,,,,,,,,,,,,,,,True,Site closed,,
161,,,,,"[100030,100032]",100096,fqhc_else,FPCN / RHD,Abbotsford-Falls Health Center,and Main Admin Office,https://www.fpcn.com/abbottsford-falls/,https://www.rhd.org/program/family-practice-and-counseling-network/,215-843-9720,215-298-0405 (office),,4700 Wissahickon Avenue,"Building D, Suite 118 or 119",Philadelphia,PA,19144,40.01538098,-75.174055,Yes,,,,Yes,,,,,,,,False,False,Yes,Yes,Yes,Yes,Yes,,,,,,,,,,,,,,,,,,False,,,
162,,,,,100026,100097,fqhc_else,FPCN / RHD,Stephen and Sandra Sheller 11th Street Family Health Services of Drexel University,,https://www.fpcn.com/stephen-and-sandra-sheller-11th-street-family-health-services-of-drexel-university/,https://www.rhd.org/program/family-practice-and-counseling-network/,215-769-1100,,,850 North 11th Street,,Philadelphia,PA,19123,39.96798702,-75.154971,Yes,,,,Yes,,,,,,,,False,False,Yes,Yes,Yes,Yes,Yes,,,,,,,,,,,,,,,,,,False,,,
163,,,,,100027,100141,tbd_unclear,FPCN / RHD,Fast Family Care at Shoprite,,,https://www.rhd.org/program/family-practice-and-counseling-network/,267-597-3610,267-597-3600,,2800 Fox Street,Unit A,Philadelphia,PA,19129,40.00899401,-75.17463696,,,,,Unclear,,,,,,,,False,False,Yes,Yes,Yes,Yes,Yes,,,,,,,,,,,,,,,,,,True,Site closed,,
164,,,,,100028,100098,fqhc_else,FPCN / RHD,Health Annex,,https://www.fpcn.com/health-annex/,https://www.rhd.org/program/family-practice-and-counseling-network/,215-727-4721,,,6120-B Woodland Avenue,2nd Floor,Philadelphia,PA,19143,39.92891474,-75.22948144,Yes,,,,Yes,,,July 2021: closed for renovation but services provided at alternate location (call for details),,,,,False,False,Yes,Yes,Yes,Yes,Yes,,,,,,,,,,,,,,,,,,False,,,
165,,,,,100029,100114,tbd_unclear,FPCN / RHD,Annex West Health Center,,https://www.fpcn.com/annex-west-health-center/,https://www.rhd.org/program/family-practice-and-counseling-network/,267-350-5150,215-243-2800,,3901 Market Street,,Philadelphia,PA,19104,39.957456,-75.20114599,,,,,Unclear,,,,,,,,False,False,Yes,Yes,Yes,Yes,Yes,,,,,,,,,,,,,,,,,,True,Data needs review,,
166,,,,,"[100032,100030]",100111,tbd_unclear,GPHA,Carl Moore Health Center,,https://www.gphainc.org/locations/find-a-location-near-you/#carl-moore-health-center,,215-755-7700,215-925-2400,,1401 South 31st Street,,Philadelphia,PA,19146,39.93599099,-75.19505301,Unclear,,,,Unclear,,,,,,,,False,False,Yes,Yes,Yes,Yes,Yes,,,,,,,,,,,,,,,,,,True,Data needs review,,
167,,,,,100033,100142,tbd_unclear,GPHA,Chinatown Medical Services,,https://www.gphainc.org/locations/find-a-location-near-you/#chinatown-medical-services,,215-627-8000,215-925-2400,,432 North 6th Street,,Philadelphia,PA,19123,39.95919584,-75.14867377,,,,,Unclear,,,,,,,,False,False,Yes,Yes,Yes,Yes,Yes,,,,,,,,,,,,,,,,,,True,Data needs review,,
168,,,,,100034,100144,tbd_unclear,GPHA,Frankford Avenue Health Center,,https://www.gphainc.org/locations/find-a-location-near-you/#frankford-avenue-health-center,,215-831-9882,215-744-1302,,4510 Frankford Avenue,,Philadelphia,PA,19124,40.01433899,-75.08635004,,,,,Unclear,,,,,,,,False,False,Yes,Yes,Yes,Yes,Yes,,,,,,,,,,,,,,,,,,True,Data needs review,,
169,,,,,100035,100108,fqhc_else,GPHA,Dental and Behavioral Healthcare,,https://www.gphainc.org/locations/find-a-location-near-you/#gpha-inc-dental-and-behavioral-healthcare,,215-724-4700,215-925-2400,,5501 Woodland Avenue,,Philadelphia,PA,19143,39.93547898,-75.220807,Yes,,,,Yes,,,,,,,,False,False,Yes,Yes,Yes,Yes,Yes,,,,,,,,,,,,,,,,,,False,,,
170,,,,,100036,,xx_unlikely,GPHA,Medical Suite at Temple University Kornberg School of Dentistry,,https://www.gphainc.org/locations/find-a-location-near-you/#gpha-inc-medical-suite-at-temple-university-kornberg-school-of-dentistry,,215-226-3789,215-925-2400,,3223 North Broad Street,"1st Floor, Suite 136",Philadelphia,PA,19140,40.00261501,-75.15207296,,,,,No,,,,,,,,False,,Yes,Yes,Yes,Yes,Yes,,,,,,,,,,,,,,,,,,True,No MAT?,,
171,,,,,100037,100145,tbd_unclear,GPHA,Spectrum Behavioral Services,,https://www.gphainc.org/locations/find-a-location-near-you/#gpha-spectrum-behavioral-services,,484-472-7430,,,1489 Baltimore Pike,"Building 300, Suite 300",Springfield,PA,19064,39.91192701,-75.35832301,,,,,Unclear,,,,,,,,False,False,Yes,Yes,Yes,Yes,Yes,,,,,,,,,,,,,,,,,,True,Data needs review,,
172,,,,,100038,100099,fqhc_else,GPHA,Hunting Park Health Center,,https://www.gphainc.org/locations/find-a-location-near-you/#hunting-park-health-center,,215-228-9300,,,1999 West Hunting Park Avenue,,Philadelphia,PA,19140,40.01310999,-75.16109197,Yes,,,,Yes,,,,,,,,False,False,Yes,Yes,Yes,Yes,Yes,,,,,,,,,,,,,,,,,,False,,,
173,,,,,100039,,xx_unlikely,GPHA,Snyder Avenue Dental Center,,https://www.gphainc.org/locations/find-a-location-near-you/#snyder-avenue-dental-center,,215-334-4900,,,640 Snyder Avenue,,Philadelphia,PA,19148,39.92269201,-75.157933,,,,,No,,,,,,,,False,,Yes,Yes,Yes,Yes,Yes,,,,,,,,,,,,,,,,,,True,No MAT?,,
174,,,,,100040,100109,fqhc_else,GPHA,Southeast Health Center,,https://www.gphainc.org/locations/find-a-location-near-you/#southeast-health-center,,215-339-5100,,,800 Washington Avenue,,Philadelphia,PA,19147,39.93579301,-75.15722004,Yes,,,,Yes,,,,,,,,False,False,Yes,Yes,Yes,Yes,Yes,,,,,,,,,,,,,,,,,,False,,,
175,,,,,100041,100143,tbd_unclear,GPHA,Woodland Avenue Health Center,,https://www.gphainc.org/locations/find-a-location-near-you/#woodland-avenue-health-center,,215-726-9807,,,5000 Woodland Avenue,,Philadelphia,PA,19143,39.93959399,-75.21394398,,,,,Unclear,,,,,,,,False,False,Yes,Yes,Yes,Yes,Yes,,,,,,,,,,,,,,,,,,True,Data needs review,,
176,,,,,100042,,tbd_unclear,PHMC,Main Admin Office,,https://www.phmc.org/,,215-985-2500,,,1500 Market Street,Suite 1500,Philadelphia,PA,19102,39.95216002,-75.16622899,,,,,Unclear,,,,,,,,False,,Yes,,,,,,,,,,,,,,,,,,,,,,False,,,
177,,,,,100043,100100,fqhc_else,PHMC,Congreso Health Center,,https://www.phmc.org/site/programs/health-care-centers/congreso-health-center,,267-765-2272,,,412 West Lehigh Avenue,,Philadelphia,PA,19133,39.99159201,-75.139697,Yes,,,,Yes,,,,,,,,False,False,Yes,Yes,,,,,,,,,,,,,,,,,,,,,False,,,
178,,,,,100044,100101,fqhc_else,PHMC,Health Connection,,https://www.phmc.org/site/programs/health-care-centers/phmc-health-connection,,215-765-6690,,,1900 North 9th Street,,Philadelphia,PA,19122,39.98117699,-75.14905204,Yes,,,,Yes,,,,,,,,False,False,Yes,Yes,Yes,Yes,Yes,,,,,,,,,,,,,,,,,,False,,,
179,,,,,100046,100102,fqhc_else,PHMC,Mary Howard Health Center,,https://www.phmc.org/site/programs/health-care-centers/mary-howard,,215-592-4500,,,125 South 9th Street,,Philadelphia,PA,19107,39.94884301,-75.15540099,Yes,,,,Yes,,,,,,,,False,False,Yes,Yes,Yes,Yes,Yes,,,,,,,,,,,,,,,,,,False,,,
180,,,,,100047,100103,fqhc_else,PHMC,Rising Sun Health Center,,https://www.phmc.org/site/programs/health-care-centers/rising-sun,,215-279-9666,,,5675 North Front Street,,Philadelphia,PA,19120,40.03646801,-75.11935303,Yes,,,,Yes,,,,,,,,False,False,Yes,Yes,Yes,Yes,Yes,,,,,,,,,,,,,,,,,,False,,,
181,,,,,"[100049,100050]",100104,fqhc_else,Philadelphia FIGHT,Jonathan Lax Treatment Center,and Main Admin Office,https://fight.org/programs/lax-center/,,215-790-1788,215-985-4448 (office),,1233 Locust Street,,Philadelphia,PA,19107,39.94811499,-75.16194299,Yes,,,,Yes,,,,,,,,False,False,Yes,Yes,Yes,Yes,Yes,,,,,,,,,,,,,,,,,,False,,,
182,,,,,100051,100105,fqhc_else,Philadelphia FIGHT,John Bell Health Center,,https://fight.org/programs/john-bell-center/,,267-725-0252,215-985-4448 (office),,1207 Chestnut Street,,Philadelphia,PA,19107,39.95074,-75.16050499,,Yes,,,Yes,,,,,,,,False,False,Yes,Yes,Yes,Yes,Yes,,,,,,,,,,,,,,,,,,False,,,
183,,,,,100052,100147,tbd_unclear,Philadelphia FIGHT,Broad Street Ministry,Community Health Centers Clinic,https://fight.org/programs/broad-street-ministry/,,215-525-8681,215-985-4448 x54448,,315 South Broad Street,,Philadelphia,PA,19107,39.94635264,-75.16484131,,,,,Unclear,,,,,,,,False,False,Yes,Yes,Yes,Yes,Yes,,,,,,,,,,,,,,,,,,True,Data needs review,,
184,,,,,,100146,tbd_unclear,Philadelphia Fight,Diana Baldwin Mental Health Clinic,,https://fight.org/programs/diana-baldwin-clinic/,,215-525-8657,215-525-8654,,1211 Chestnut Street,,Philadelphia,PA,19107,39.95076699,-75.16071504,,,,,Unclear,,,,,,,,False,False,Yes,Yes,Yes,Yes,Yes,,,,,,,,,,,,,,,,,,True,Data needs review,,
185,,,,,100055,100107,fqhc_else,Project HOME,Hub of Hope,,https://projecthome.org/hub-hope,https://projecthome.org/integrated-medical-behavioral-health-services,215-309-5225,215-320-6187 x3211,,1401 Arch Street,"Lower Level, Suburban Station Concourse",Philadelphia,PA,19102,39.95473498,-75.16362096,Yes,,,,Yes,,,,,,,,False,False,Yes,Yes,Yes,Yes,Yes,,,,,,,,,,,,,,,,,,False,,,
186,,,,,100056,100112,tbd_unclear,QCHC,Quality Community Family Health Center,,https://qchc.org/facilities-1,,215-227-0300,,,2501 West Lehigh Avenue,,Philadelphia,PA,19132,39.996465,-75.17245004,Unclear,,,,Unclear,,,,,,,,False,False,Yes,Yes,Yes,Yes,Yes,,,,,,,,,,,,,,,,,,True,Data needs review,,
187,,,,,100057,100149,xx_unlikely,QCHC,Cooke Family Health Center,,https://qchc.org/facilities-1,,215-457-6902,,,1300 West Loudon Street,,Philadelphia,PA,19141,40.02582109,-75.14542426,,,,,No,,,,,,,,False,False,Yes,Yes,Yes,Yes,Yes,,,,,,,,,,,,,,,,,,True,Data needs review,,
188,,,,,100058,100148,xx_unlikely,QCHC,Meade Family Health Center,,https://qchc.org/facilities-1,,215-765-9501,,,1800 West Oxford Street,,Philadelphia,PA,19121,39.97837002,-75.16492996,,,,,No,,,,,,,,False,False,Yes,Yes,Yes,Yes,Yes,,,,,,,,,,,,,,,,,,True,Data needs review,,
189,,,,,100059,100113,tbd_unclear,Sayre Health Center,,,https://www.sayrehealth.org/,,215-474-4444,,,5800 Walnut Street,,Philadelphia,PA,19139,39.95798498,-75.23858904,Unclear,,,,Unclear,,,"Call to check location. Website lists new address in header: 227 South 59th Street, 19139, but map & footer still have 5800 Walnut St, 19139.",,,,,False,False,Yes,Yes,Yes,Yes,Yes,,,,,,,,,,,,,,,,,,True,Data needs review,,
190,,,,,"[100060,100061]",100106,fqhc_else,"Spectrum Health Services, Inc.",Spectrum Community Health Center (SCHC),and Main Admin Office,https://www.spectrumhs.org/locations/spectrum-community-health-center-schc/,,215-471-2750,215-471-2761,,5201 Haverford Avenue,,Philadelphia,PA,19139,39.96542002,-75.225021,Yes,,,,Yes,,,,,,,,False,False,Yes,Yes,Yes,Yes,Yes,,,,,,,,,,,,,,,,,,False,,,
191,,,,,100062,100150,xx_unlikely,"Spectrum Health Services, Inc.",Broad Street Health Center (BSHC),,https://www.spectrumhs.org/locations/broad-street-health-center-bshc/,,215-235-7944,215-471-2761,,1415 North Broad Street,,Philadelphia,PA,19122,39.97498719,-75.15859411,,,,,No,,,,,,,,False,False,Yes,Yes,Yes,Yes,Yes,,,,,,,,,,,,,,,,,,True,Data needs review,,
192,,,,,100063,100151,xx_unlikely,"Spectrum Health Services, Inc.",Reed Street Health Center (RSHC),,https://www.spectrumhs.org/locations/reed-street-health-center-rshc/,,215-220-3925,215-471-2761,,1325 South 33rd Street,,Philadelphia,PA,19146,39.93704502,-75.19776498,,,,,No,,,,,,,,False,False,Yes,Yes,Yes,Yes,Yes,,,,,,,,,,,,,,,,,,True,Data needs review,,
193,,,,,,100001,tbd_unclear,Asociación Puertorriqueños en Marcha,,,https://apmphila.org/how-we-help/health/,,267-296-7220,267-798-7560,,112 East Allegheny Avenue,,Philadelphia,PA,19134,39.998162,-75.12884,,,,,Unclear,,,,,,,,,False,,,,,,,,,,,,,,,,,,,,,,,True,,,
194,,,,,,100003,other_mat,Drexel University Medicine,Partnership Comprehensive Care Practice,,https://drexelmedicine.org/patient-services/partnership-comprehensive-care-practice/,https://towerhealth.org/locations/drexel-partnership,215-762-2530 (2nd Floor),215-762-6565 (6th Floor),,1427 Vine Street,,Philadelphia,PA,19102,39.958485,-75.16359397,Yes,,,,Yes,,,,,,,,,False,,,,,,,,,,,,,,,,,,,,,,,False,,,
195,,,,,,100005,other_mat,Tower Health,Psychiatry - Vine Street,,https://towerhealth.org/locations/psychiatry-tower-health-medical-group-psychiatry-vine-street,,267-507-6581,,,1427 Vine Street,8th Floor,Philadelphia,PA,19102,39.958485,-75.16359397,Yes,,,,Yes,,,,,,,,,False,,,,,,,,,,,,,,,,,,,,,,,False,,,
196,,,,,,100006,other_mat,Tower Health,Chestnut Hill Hospital,,https://towerhealth.org/locations/chestnut-hill-hospital,,215-248-8200,,,8835 Germantown Avenue,,Philadelphia,PA,19118,40.079624,-75.21231596,Yes,,,,Yes,,,,,,,,,False,,,,,,,,,,,,,,,,,,,,,,,False,,,
197,,,,,,100007,other_mat,Tower Health,Family Medicine Residency - Chestnut Hill,,https://towerhealth.org/locations/tower-health-medical-group-family-medicine-residency-chestnut-hill,,215-248-8145,,,8815 Germantown Avenue,5th Floor,Philadelphia,PA,19118,40.07872732,-75.21240188,Yes,,,,Yes,,,,,,,,,False,,,,,,,,,,,,,,,,,,,,,,,False,,,
198,,,,,,100008,other_mat,Tower Health,Family Medicine - Broad Street,,https://towerhealth.org/locations/tower-health-medical-group-family-medicine-broad-street,,215-762-5145,,,219 North Broad Street,1st Floor,Philadelphia,PA,19107,39.956888,-75.16223904,Yes,,,,Yes,,,,,,,,,False,,,,,,,,,,,,,,,,,,,,,,,False,,,
199,,,,,,100024,tbd_unclear,Phila Pain Clinic,,,http://www.philapainclinic.com/,,215-969-2331,,,12000 Bustleton Avenue,Suite 208,Philadelphia,PA,19116,40.122286,-75.01654102,Yes,,,,Yes,,,,,,,,,False,,,,,,,,,,,,,,,,,,,,,,,True,Data needs review,[_] Is pain management clinic unsuitable for listing in MAT finder?,
200,,,,,,100014,other_mat,Psychiatry in Philadelphia & the Main Line,"Michael Ascher, MD",,https://aschermd.com/,,646-812-1421,,,255 South 17th Street,Suite 605,Philadelphia,PA,19103,39.94822961,-75.1693963,Yes,,,,Yes,,,Suite 1008 and Suite 1410 at this same street address have other waivered buprenorphine practitioners.,,,,,,False,,,,,,,,,,,,,,,,,,,,,,,False,,"[_] Add other address from practice website too? Main Line: 257 East Lancaster Avenue, Suite 204, Wynnewood, PA 19096",
201,,,,,,100018,other_mat,Beasley Addiction Specialists,"C. Britt Beasley, MD",,https://beasleyaddiction.com/,,267-417-9078,,,2401 Pennsylvania Avenue,Suite #1C-44,Philadelphia,PA,19130,39.96678401,-75.17772997,Yes,,,,Yes,,,,,,,,,False,,No,Yes,No,No,No,No,,,,,,,,,,,,,,,,False,,,
202,,,,,,100020,other_mat,"Private Practice of Psychiatry, Philadelphia","Chris Pagnani, MD PC",,https://chrispagnanimd.com/,,267-687-0655,,,1528 Walnut Street,Suite 1415,Philadelphia,PA,19102,39.94945698,-75.16733196,Yes,,,,Yes,,,,,,,,,False,,,,,,,,,,,,,,,,,,,,,,,False,,,
203,,,,,,100016,other_mat,Courage Medicine Health Center Inc.,"Trisha Acri, MD",,https://couragemedicine.org/about/,https://www.integratedcarenews.com/sites/courage-medicine-health-center/,267-217-3217,,,1010 West Lehigh Avenue,,Philadelphia,PA,19133,39.992899,-75.14854602,Yes,,,,Yes,,,,,,,,,False,,,,,,,,,,,,,,,,,,,,,,,False,,NPI updated Sept 2020 lists this practice address,
204,,,,,,100017,tbd_unclear,Courage Medicine,,,https://couragemedicine.org/,https://www.integratedcarenews.com/sites/courage-medicine-health-center/,267-217-3217,215-385-5031,,7198 Castor Avenue,,Philadelphia,PA,19149,40.04920402,-75.06845903,Yes,,,,Yes,,,,,,,,,False,,,,,,,,,,,,,,,,,,,,,,,False,,,
205,,,,,,100022,other_mat,Adult Psychiatry and Pain Management,"Richard M. Sobel, MD",,https://richardsobelmd.com/,,215-731-1901,,,1500 Walnut Street,Suite 902,Philadelphia,PA,19102,39.94914098,-75.16636201,Yes,,,,Yes,,,,,,,,,False,,,,,,,,,,,,,,,,,,,,,,,False,,,
206,,,,,,100015,other_mat,BAYADA Home Health Care,Philadelphia Visits,,https://www.bayada.com/offices/pa/philadelphia/1020-n--delaware-ave/home-health,,215-413-0600,267-800-1009,,1020 North Delaware Avenue,,Philadelphia,PA,19125,39.965826,-75.13278503,Yes,,,,Yes,,,,,,,,,False,,,,,,,,,,,,,,,,,,,,,,,False,,,
207,,,,,,100019,xx_unlikely,Beaumont Retirement,at Bryn Mawr,,https://www.beaumontretirement.com/about/management-team/,,,,,1201 Latona Street,,Philadelphia,PA,19147,39.93472801,-75.16426301,Unclear,,,,Unclear,,,,,,,,,False,,,,,,,,,,,,,,,,,,,,,,,True,Not a practice site,Archiving this entry simply to rule out 1 BP address as MAT listing,
208,,,,,,100026,other_mat,AbsoluteCare,Philadelphia,,https://www.absolutecare.com/members-patients/abcare-philadelphia/,,267-463-5800,,,1080 North Delaware Avenue,Suite 800,Philadelphia,PA,19125,39.9656834,-75.13248116,Yes,,,,Yes,,,,,,,,,False,No,Yes,,,,,,,,Yes,,,,,,,,,,,,,False,,,
209,,,,,,100027,other_mat,CleanSlate,Outpatient Addiction Medicine,Philadelphia Treatment Center,https://www.cleanslatecenters.com/philadelphia-pennsylvania,,267-238-2406,833-505-4673 (HOPE),,2300 South Broad Street,Suite 205,Philadelphia,PA,19145,39.92181401,-75.17068498,Yes,,,,Yes,,,,,,,,,False,,,,,,,,,,,,,,,,,,,,,,,False,,,
210,,,,,,100012,other_mat,CleanSlate,Outpatient Addiction Medicine,Port Richmond,https://www.cleanslatecenters.com/philadelphia-port-richmond-pennsylvania,,215-433-1855,833-505-4673 (HOPE),,3380 Memphis Street,,Philadelphia,PA,19134,39.99129176,-75.10247758,Yes,,,,Yes,,,,,,,,,False,,,,,,,,,,,,,,,,,,,,,,,False,,,
211,,,,,,100021,other_mat,FamilyMedAssoc,Dr. John J. Bowden Jr.,Center City Office,https://www.familymedassoc.com/,,215-977-7721,,,205 North Broad Street,Suite 500,Philadelphia,PA,19107,39.95645201,-75.16233702,Yes,,,,Yes,,,,,,,,,False,,,,,,,,,,,,,,,,,,,,,,,False,,,
212,,,,,,100028,other_mat,FamilyMedAssoc,Dr. John J. Bowden Jr.,Cheltenham Office,https://www.familymedassoc.com/,,215-548-3390,,,1738 West Cheltenham Avenue,,Philadelphia,PA,19126,40.06638101,-75.14515504,Yes,,,,Yes,,,,,,,,,False,,,,,,,,,,,,,,,,,,,,,,,False,,,
213,,,,,,100025,tbd_unclear,Horizon House,,,https://www.hhinc.org/,,215-386-3838,,,5901 Market Street,3rd Floor,Philadelphia,PA,19139,39.96207099,-75.23911902,,,,,Unclear,,,,,,,,,False,,,,,,,,,,,Yes,Yes,,,,,,,,,,,False,,[_] Is this site directly affiliated with DVCH Fairmount Primary Care at Horizon House? (oid 152),
214,,,,,,100013,other_mat,Main Line Health,"Mario Littman, MD, and Sam Hamid, MD",,https://www.mainlinehealth.org/find-a-doctor/mario-littman,,215-878-7050,,,7300 City Avenue,Suite 203,Philadelphia,PA,19151,39.980165,-75.26765404,Yes,,,,Yes,,,,,,,,,False,,,,,,,,,,,,,,,,,,,,,,,False,,,
215,,,,,,100023,other_mat,Southeastern Executive Health,"David Clements, MD, and Daniel Bigman, MD",,https://www.myexecutivehealth.com/about-us,,267-361-1001,,,1845 Walnut Street,Suite 1540,Philadelphia,PA,19103,39.950697,-75.171595,Yes,,,,Yes,,,,,,,,,False,,,Yes,No,No,No,,,,,,,,,,,,,,,,,False,,,
216,,,,100114,,,samhsa_otp,"Advanced Treatment Systems, LLC",Coatesville Treatment Center,,,,610-466-9250,,,1825 East Lincoln Highway,,Coatesville,PA,19320,39.98881385,-75.78954892,,,,Yes,Yes,,,,,False,,,,,,,,,,,,,,,,,,,,,,,,,,,False,,,
217,,,,100116,,,samhsa_otp,Recovery Centers of America at Devon,Recovery Centers of America at Devon,,,,,,,235 West Lancaster Avenue,,Devon,PA,19333,40.04457494,-75.42686807,,,,Yes,Yes,,,,,False,,,,,,,,,,,,,,,,,,,,,,,,,,,False,,,
218,,,,100135,,,samhsa_otp,Aldie Foundation Inc.,,,,,215-642-3230,,,2291 Cabot Boulevard West,,Langhorne,PA,19047,40.19154801,-74.868325,,,,Yes,Yes,,,,,False,,,,,,,,,,,,,,,,,,,,,,,,,,,False,,,
219,,,,100132,,,samhsa_otp,Bowling Green Brandywine,Bowling Green Brandywine,,,,610-268-3588,,,1385 Newark Road,,Kennett Square,PA,19348,39.84491838,-75.7652423,,,,Yes,Yes,,,,,False,,,,,,,,,,,,,,,,,,,,,,,,,,,False,,,
220,,,,100137,,,samhsa_otp,RCA MAT PA LLC,Delaware County Healthcare Clinic,,,,484-257-1350,,,53 North Union Ave,,Lansdowne,PA,19050,39.94164999,-75.26545999,,,,Yes,Yes,,,,,False,,,,,,,,,,,,,,,,,,,,,,,,,,,False,,,
221,,,,100141,,,samhsa_otp,SOAR Corp,Recovery Center (Bristol Program),,https://www.soarcorp.org/,https://www.soarcorp.org/hours-of-operation,,866-616-4450,215-464-4450,7500 Bristol Pike,,Levittown,PA,19057,40.13139901,-74.83110499,,,,Yes,Yes,,,,,False,,,,,,,,,,,,,,,,,,,,,,,,,,,False,,,
222,,,,100159,,,samhsa_otp,"Habit Opco, LLC",Habit OPCO - Pottstown,,,,610-970-5410,,,301 Circle of Progress,,Pottstown,PA,19464,40.26263502,-75.66707997,,,,Yes,Yes,,,,,False,,,,,,,,,,,,,,,,,,,,,,,,,,,False,,,
223,,,,100161,,,samhsa_otp,Pennsylvania Adult & Teen Challenge,Pennsylvania Adult & Teen Challenge,,,,717-933-4148,,,33 Teen Challenge Road,,Rehrersburg,PA,19550,40.45123601,-76.24396002,,,,Yes,Yes,,,,,False,,,,,,,,,,,,,,,,,,,,,,,,,,,False,,Street address found via Google Maps search for facility name and city,
224,,,,100175,,,samhsa_otp,New Directions Treatment Services,,,,,610-750-6130,,,1 Park Plaza,,Wyomissing,PA,19610,40.34653289,-75.95840243,,,,Yes,Yes,,,,,False,,,,,,,,,,,,,,,,,,,,,,,,,,,False,,,
225,,,,100180,,,samhsa_otp,Richard J Caron Foundation Inc.,Caron Treatment Centers,,,,610-678-2332,,,243 North Galen Hall Road,,Wernersville,PA,19565,40.30969802,-76.09730798,,,,Yes,Yes,,,,,False,,,,,,,,,,,,,,,,,,,,,,,,,,,False,,,
226,,,,100181,,,samhsa_otp,"Livengrin Foundation, Inc.",Livengrin Foundation,,,,215-638-5200,,,4833 Hulmeville Road,,Bensalem,PA,19020,40.119043,-74.92713998,,,,Yes,Yes,,,,,False,,,,,,,,,,,,,,,,,,,,,,,,,,,False,,,
227,,,,,,,tbd_unclear,DVCH,Fairmount Primary Care Center at Horizon House,Main Admin Office?,,,215-386-3838,,,120 South 30th Street,,Philadelphia,PA,19104,39.95280403,-75.18392369,,,,,Unclear,,,,,,,,False,,Yes,Yes,Yes,Yes,Yes,,,,,,,,,,,,,,,,,,True,Data needs review,"Compare oid 152 at 5901 Market Street, 19139 (matches website here: https://dvch.org/contact-dvch/ but not here: https://dvch.org/fairmount-primary-horizon-house/)",
228,,,,,,,tbd_unclear,PHMC,Serenity Court,,https://www.phmc.org/site/programs/services-to-special-populations/homeless#serenitycourt,https://nhchc.org/business-directory/245012/serenity-court-homeless-medical-respite-2/,215-684-3432,,,1221 North 19th Street,,Philadelphia,PA,19121,39.973599,-75.16696299,Unclear,,,,Unclear,,,,,,,,False,,Yes,Yes,Yes,Yes,Yes,,,,,,,,,,,,,,,,,,False,,,
229,,,,,,,xx_unlikely,GPHA,Delaware Avenue Health Center,,,,215-925-2400,,,1080 North Delaware Avenue,,Philadelphia,PA,19125,39.9656834,-75.13248116,,,,,Unclear,,,,,,,,False,,Yes,Yes,Yes,Yes,Yes,,,,,,,,,,,,,,,,,,True,Data needs review,Is HRSA data mistaken? GPHA does not list this address anywhere on their website (https://www.gphainc.org/locations/),
230,,,,,"[100064,100065]",,xx_unlikely,CHHS,Covenant House Health and Dental Center,and Main Admin Office,https://web.archive.org/web/20151108032653/http://www.covenanthousehealth.org/,,215-844-0181,215-844-1020,,251 East Bringhurst Street,,Philadelphia,PA,19144,40.03465299,-75.16494999,,,,,No,,,,,,,,False,,Yes,Yes,Yes,Yes,Yes,,,,,,,,,,,,,,,,,,True,No MAT?,,
231,,,,,100066,,xx_unlikely,CHHS,Covenant House Health and Dental Center,,,,267-331-9832,,,138 Chelten Avenue,2nd Floor Rear,Philadelphia,PA,19144,40.03281199,-75.17729897,,,,,No,,,,,,,,False,,Yes,Yes,,,,,,,,,,,,,,,,,,,,,True,No MAT?,,
232,,,,,100067,,xx_unlikely,CHHS,Mt. Pleasant Health Center,,,,215-248-7561,,,8125 Stenton Avenue,,Philadelphia,PA,19150,40.06749798,-75.17886798,,,,,No,,,,,,,,False,,Yes,Yes,Yes,Yes,Yes,,,,,,,,,,,,,,,,,,True,No MAT?,,
233,,,,100101,,,samhsa_otp,"Pinnacle Treatment Centers PA-V, LLC",Pinnacle Treatment Services of Aliquippa,,,,724-857-9640,,,400 Woodlawn Drive,,Aliquippa,PA,15001,40.62064898,-80.24167596,,,,Yes,Yes,,,,,False,,,,,,,,,,,,,,,,,,,,,,,,,,,True,,,
234,,,,100102,,,samhsa_otp,White Deer Run,,,,,800-255-2335,,,360 White Deer Run Road,,Allenwood,PA,17810,41.100596,-76.92561704,,,,Yes,Yes,,,,,False,,,,,,,,,,,,,,,,,,,,,,,,,,,False,,,
235,,,,100103,,,samhsa_otp,Dolminis Methadone Maintenance Program,,,,,814-204-0059,,,2 Sellers Drive,,Altoona,PA,16601,40.46100327,-78.40794378,,,,Yes,Yes,,,,,False,,,,,,,,,,,,,,,,,,,,,,,,,,,True,,,
236,,,,100104,,,samhsa_otp,"Pennsylvania Care, LLC",Miners Medical,,,,570-822-5145,,,43 South Main Street,,Ashley,PA,18706,41.21154202,-75.90168198,,,,Yes,Yes,,,,,False,,,,,,,,,,,,,,,,,,,,,,,,,,,False,,,
237,,,,100105,,,samhsa_otp,Lehigh County Center for Recovery,,,,,855-256-3285,,,1620 Riverside Drive,,Bethlehem,PA,18015,40.61220899,-75.41315198,,,,Yes,Yes,,,,,False,,,,,,,,,,,,,,,,,,,,,,,,,,,False,,,
238,,,,100106,,,samhsa_otp,New Directions Treatment Services,,,,,610-758-8011,,,2442 Broadhead Road,,Bethlehem,PA,18020,40.67822252,-75.36702245,,,,Yes,Yes,,,,,False,,,,,,,,,,,,,,,,,,,,,,,,,,,False,,,
239,,,,100107,,,samhsa_otp,MedMark Treatment Centers - Blairsville PA,MedTech Rehab,,,,724-459-4884,,,1984 Route 22,,Blairsville,PA,15717,40.44926562,-79.18390328,,,,Yes,Yes,,,,,False,,,,,,,,,,,,,,,,,,,,,,,,,,,True,,,
240,,,,100108,,,samhsa_otp,"Foundations Medical Services, LLC",,,,,724-431-2006,,,160 Hindman Road,,Butler,PA,16001,40.881016,-79.94510302,,,,Yes,Yes,,,,,False,,,,,,,,,,,,,,,,,,,,,,,,,,,True,,,
241,,,,100109,,,samhsa_otp,ARS of Pennsylvania LLC,,,,,717-761-4500,,,3433 Trindle Road,,Camp Hill,PA,17011,40.23670199,-76.93858803,,,,Yes,Yes,,,,,False,,,,,,,,,,,,,,,,,,,,,,,,,,,False,,,
242,,,,100110,,,samhsa_otp,"Fayette Treatment Program, LLC",GTC,,,,724-966-5000,,,2695 Roy E Furman Highway,,Carmichaels,PA,15320,39.85826555,-79.94592769,,,,Yes,Yes,,,,,False,,,,,,,,,,,,,,,,,,,,,,,,,,,True,,,
243,,,,100111,,,samhsa_otp,Pinnacle Treatment Centers PA-VIII,Charleroi Treatment Services,,,,724-565-1310,,,15 Arentzen Boulevard,,Charleroi,PA,15022,40.125069,-79.88518398,,,,Yes,Yes,,,,,False,,,,,,,,,,,,,,,,,,,,,,,,,,,True,,,
244,,,,100113,,,samhsa_otp,"Discovery House CU, LLC",Discovery House,,,,814-768-7575,,,214 Airport Road,,Clearfield,PA,16830,41.045781,-78.39766397,,,,Yes,Yes,,,,,False,,,,,,,,,,,,,,,,,,,,,,,,,,,True,,,
245,,,,100115,,,samhsa_otp,"Center for Behavioral Health-PA, LLC",Discovery House,,,,724-779-2010,,,301 Smith Drive,Suite 3,Cranberry Township,PA,16066,40.69768102,-80.10152903,,,,Yes,Yes,,,,,False,,,,,,,,,,,,,,,,,,,,,,,,,,,True,,,
246,,,,100117,,,samhsa_otp,"Aldie Foundation, Inc.",,,,,215-345-8530,,,11 Welden Drive,,Doylestown,PA,18901,40.33402,-75.14427402,,,,Yes,Yes,,,,,False,,,,,,,,,,,,,,,,,,,,,,,,,,,False,,,
247,,,,100118,,,samhsa_otp,"Discovery House-BC, LLC",Discovery House,,,,814-944-7000,,,3438 Route 764,,Duncansville,PA,16635,40.46179,-78.42657802,,,,Yes,Yes,,,,,False,,,,,,,,,,,,,,,,,,,,,,,,,,,True,,,
248,,,,100119,,,samhsa_otp,"Habit Opco, LLC",Habit OPCO - Dunmore,,,,570-344-5327,,,118 Monahan Avenue,,Dunmore,PA,18512,41.43104801,-75.615658,,,,Yes,Yes,,,,,False,,,,,,,,,,,,,,,,,,,,,,,,,,,False,,,
249,,,,100121,,,samhsa_otp,ARS of Ephrata,,,,,717-740-6910,,,11 South State Street,,Ephrata,PA,17522,40.17876402,-76.17831698,,,,Yes,Yes,,,,,False,,,,,,,,,,,,,,,,,,,,,,,,,,,False,,,
250,,,,100122,,,samhsa_otp,Esper Treatment Center,,,,,814-459-0817,,,25 West 18th Street,,Erie,PA,16508,42.11778002,-80.07859497,,,,Yes,Yes,,,,,False,,,,,,,,,,,,,,,,,,,,,,,,,,,True,,,
251,,,,100123,,,samhsa_otp,New Directions Healthcare,New Directions Healthcare,,,,814-240-6216,,,306 West 11th Street,,Erie,PA,16501,42.12254098,-80.08865401,,,,Yes,Yes,,,,,False,,,,,,,,,,,,,,,,,,,,,,,,,,,True,,,
252,,,,100124,,,samhsa_otp,"DISCOVERY HOUSE-NPA, LLC",Discovery House,,,,724-981-9815,,,1914 Mercer Avenue,,Farrell,PA,16121,41.21379499,-80.48011697,,,,Yes,Yes,,,,,False,,,,,,,,,,,,,,,,,,,,,,,,,,,True,,,
253,,,,100125,,,samhsa_otp,Medmark Treatment Centers - Greensburg,,,,,724-834-1144,,,1037 Compass Circle,,Greensburg,PA,15601,40.30710298,-79.52190501,,,,Yes,Yes,,,,,False,,,,,,,,,,,,,,,,,,,,,,,,,,,True,,,
254,,,,100126,,,samhsa_otp,"Pinnacle Treatment Centers PA-VII, LLC",Hanover Treatment Services,,,,717-969-8400,,,120 Penn Street,,Hanover,PA,17331,39.80974599,-76.98021298,,,,Yes,Yes,,,,,False,,,,,,,,,,,,,,,,,,,,,,,,,,,False,,,
255,,,,100127,,,samhsa_otp,Pennsylvania Psychiatric Institute,,,,,717-782-6844,,,2501 North 3rd Street,,Harrisburg,PA,17110,40.28636699,-76.89813998,,,,Yes,Yes,,,,,False,,,,,,,,,,,,,,,,,,,,,,,,,,,False,,,
256,,,,100128,,,samhsa_otp,"Discovery House HA, LLC",Discovery House,,,,717-233-7290,,,3601 Progress Avenue,,Harrisburg,PA,17110,40.31828599,-76.85651,,,,Yes,Yes,,,,,False,,,,,,,,,,,,,,,,,,,,,,,,,,,False,,,
257,,,,100129,,,samhsa_otp,"RHJ Medical Center, Inc",,,,,724-696-9600,,,1007 Old State Route 119,,Hunker,PA,15639,40.19205257,-79.58760801,,,,Yes,Yes,,,,,False,,,,,,,,,,,,,,,,,,,,,,,,,,,True,,,
258,,,,100131,,,samhsa_otp,"Pinnacle Treatment Centers PA-III, LLC",Alliance Medical Services-Johnstown,,,,814-269-4700,,,1425 Scalp Avenue #175,,Johnstown,PA,15904,40.27262599,-78.85605601,,,,Yes,Yes,,,,,False,,,,,,,,,,,,,,,,,,,,,,,,,,,True,,,
259,,,,100133,,,samhsa_otp,"ARS of Lancaster, LP",Addiction Recovery Systems,,,,717-394-7160,,,2192 Embassy Drive,,Lancaster,PA,17603,40.04499198,-76.36176498,,,,Yes,Yes,,,,,False,,,,,,,,,,,,,,,,,,,,,,,,,,,False,,,
260,,,,100134,,,samhsa_otp,White Deer Run of Lancaster,,,,,717-396-0650,,,53 North West End Avenue,,Lancaster,PA,17603,40.03974998,-76.32278201,,,,Yes,Yes,,,,,False,,,,,,,,,,,,,,,,,,,,,,,,,,,False,,,
261,,,,100138,,,samhsa_otp,New Perspectives of White Deer Run,,,,,717-270-3900,,,3030 Chestnut Street,,Lebanon,PA,17042,40.33776101,-76.45830498,,,,Yes,Yes,,,,,False,,,,,,,,,,,,,,,,,,,,,,,,,,,False,,,
262,,,,100139,,,samhsa_otp,"Advanced Treatment Systems, LLC",Lebanon Treatment Center,,,,717-273-8000,,,3030 Chestnut Street,,Lebanon,PA,17046,40.33776101,-76.45830498,,,,Yes,Yes,,,,,False,,,,,,,,,,,,,,,,,,,,,,,,,,,False,,,
263,,,,100140,,,samhsa_otp,Polaris Renewal Services II,,,,,724-323-8200,,,2262 University Drive,,Lemont Furnace,PA,15456,39.94208501,-79.65722396,,,,Yes,Yes,,,,,False,,,,,,,,,,,,,,,,,,,,,,,,,,,True,,,
264,,,,100142,,,samhsa_otp,UPMC McKeesport Hospital,Addiction Medicine Services,,,,412-664-3342,,,1500 Fifth Avenue,,McKeesport,PA,15132,40.35127,-79.84958797,,,,Yes,Yes,,,,,False,,,,,,,,,,,,,,,,,,,,,,,,,,,True,,,
265,,,,100143,,,samhsa_otp,"Pinnacle Treatment Centers PA-VI, LLC dba Greenfield Counseling, Inc.",Greenfield Counseling,,,,814-337-7431,,,11127 Perry Highway,,Meadville,PA,16335,41.61906998,-80.202451,,,,Yes,Yes,,,,,False,,,,,,,,,,,,,,,,,,,,,,,,,,,True,,,
266,,,,100144,,,samhsa_otp,"Discovery House CC, LLC",Discovery House,,,,717-766-6974,,,920 Century Drive,,Mechanicsburg,PA,17055,40.21117,-76.963707,,,,Yes,Yes,,,,,False,,,,,,,,,,,,,,,,,,,,,,,,,,,False,,,
267,,,,100145,,,samhsa_otp,Bradford Recovery Center,,,,,570-537-6035,,,64 School Street,,Millerton,PA,16936,41.97537002,-76.90710904,,,,Yes,Yes,,,,,False,,,,,,,,,,,,,,,,,,,,,,,,,,,True,,,
268,,,,100146,,,samhsa_otp,"Pennsylvania Associates, LLC",Mount Pocono Medical,,,,570-839-7246,,,1151 Pocono Boulevard,Unit #3,Mt Pocono,PA,18344,41.13586102,-75.36446301,,,,Yes,Yes,,,,,False,,,,,,,,,,,,,,,,,,,,,,,,,,,False,,,
269,,,,100147,,,samhsa_otp,"Discovery House-NC, LLC",Discovery House,,,,724-598-7999,,,2710 West State Street,,New Castle,PA,16101,41.01475098,-80.40053197,,,,Yes,Yes,,,,,False,,,,,,,,,,,,,,,,,,,,,,,,,,,True,,,
270,,,,100150,,,samhsa_otp,"Habit Opco, LLC",Habit Opco - Allentown,,,,610-481-0444,,,2970 Corporate Court,Suite 1,Orefield,PA,18069,40.616302,-75.65999701,,,,Yes,Yes,,,,,False,,,,,,,,,,,,,,,,,,,,,,,,,,,False,,,
271,,,,100151,,,samhsa_otp,Polaris Renewal Services,,,,,724-736-8390,,,3591 Pittsburgh Road,,Perryopolis,PA,15473,40.09750402,-79.76380497,,,,Yes,Yes,,,,,False,,,,,,,,,,,,,,,,,,,,,,,,,,,True,,,
272,,,,100152,,,samhsa_otp,"Pinnacle Treatment Centers PA-II, LLC",Alliance Medical Services Ensign II,,,,412-488-6360,,,739 Ensign Avenue,,Pittsburgh,PA,15226,40.40626898,-80.00488703,,,,Yes,Yes,,,,,False,,,,,,,,,,,,,,,,,,,,,,,,,,,True,,,
273,,,,100153,,,samhsa_otp,"Pinnacle Treatment Centers PA-I, LLC",Alliance Medical Services Ensign I,,,,412-488-6360,,,729 Ensign Avenue,,Pittsburgh,PA,15226,40.405862,-80.00418002,,,,Yes,Yes,,,,,False,,,,,,,,,,,,,,,,,,,,,,,,,,,True,,,
274,,,,100154,,,samhsa_otp,"Center for Behavioral Health-PA, LLC",Discovery House,,,,412-661-9222,,,1391 Washington Boulevard,,Pittsburgh,PA,15206,40.46997199,-79.90899798,,,,Yes,Yes,,,,,False,,,,,,,,,,,,,,,,,,,,,,,,,,,True,,,
275,,,,100155,,,samhsa_otp,"Progressive Medical Specialists, Inc.",OTP,,,,412-391-6384,,,2900 Smallman Street,,Pittsburgh,PA,15201,40.45842399,-79.97465904,,,,Yes,Yes,,,,,False,,,,,,,,,,,,,,,,,,,,,,,,,,,True,,,
276,,,,100156,,,samhsa_otp,"Tadiso, Inc.",,,,,412-322-8415,,,1425 Beaver Avenue,,Pittsburgh,PA,15233,40.453802,-80.02984398,,,,Yes,Yes,,,,,False,,,,,,,,,,,,,,,,,,,,,,,,,,,True,,,
277,,,,100157,,,samhsa_otp,VA Pittsburgh Healthcare System Center for Treatment of Addictive Disorders,Opioid Substitution Treatment Clinic,,https://www.va.gov/pittsburgh-health-care/,,412-360-6092,,,4100 Allequippa Street,,Pittsburgh,PA,15240,40.44715499,-79.95949701,,,,Yes,Yes,,,,,False,,,,,,,,,,,,,,,,,,,,,,,,,,,True,,Street address found via Google Maps search | website also lists University Drive C and 1010 Delafield Road,
278,,,,100158,,,samhsa_otp,"Pinnacle Treatment Centers PA-IV, LLC",Summit Medical Services,,,,412-255-8717,,,3121 Smallman Street,,Pittsburgh,PA,15201,40.461042,-79.97184297,,,,Yes,Yes,,,,,False,,,,,,,,,,,,,,,,,,,,,,,,,,,True,,,
279,,,,100160,,,samhsa_otp,"Northeast Family Health Care, LLC",Medical Director,,,,267-347-4560,,,1040 South West End Boulevard,,Quakertown,PA,18951,40.41836101,-75.34574404,,,,Yes,Yes,,,,,False,,,,,,,,,,,,,,,,,,,,,,,,,,,False,,,
280,,,,100162,,,samhsa_otp,"Clear Choices, LLC",,,,,724-775-7905,,,373 Cleveland Street,,Rochester,PA,15074,40.71107501,-80.28723798,,,,Yes,Yes,,,,,False,,,,,,,,,,,,,,,,,,,,,,,,,,,True,,,
281,,,,100163,,,samhsa_otp,Rainbow Recovery Center,,,,,724-269-5130,,,912 East State Street,,Sharon,PA,16146,41.232693,-80.49248204,,,,Yes,Yes,,,,,False,,,,,,,,,,,,,,,,,,,,,,,,,,,True,,,
282,,,,100164,,,samhsa_otp,PA Care LLC,State College Medical,,,,814-235-6986,,,3091 Enterprise Drive,Suite 150,State College,PA,16801,40.76431698,-77.87967602,,,,Yes,Yes,,,,,False,,,,,,,,,,,,,,,,,,,,,,,,,,,True,,,
283,,,,100166,,,samhsa_otp,"RHJ Medical Center, Inc./Vandergrift",,,,,724-696-9600,,,2994 River Road,,Vandergrift,PA,15690,40.62747701,-79.58547797,,,,Yes,Yes,,,,,False,,,,,,,,,,,,,,,,,,,,,,,,,,,True,,,
284,,,,100167,,,samhsa_otp,SOAR Corp,Recovery Center (Warminster Program),,https://www.soarcorp.org/,,215-464-4450,866-616-4450,,655 Louis Drive,,Warminster,PA,18974,40.20135601,-75.08475798,,,,Yes,Yes,,,,,False,,,,,,,,,,,,,,,,,,,,,,,,,,,False,,,
285,,,,100168,,,samhsa_otp,"Progressive Medical Specialist, Inc.",OTP,,,,724-873-5655,,,2453 West Pike Road,,Washington,PA,15342,40.22356001,-80.21710902,,,,Yes,Yes,,,,,False,,,,,,,,,,,,,,,,,,,,,,,,,,,True,,,
286,,,,100169,,,samhsa_otp,"Echo Treatment Center, LLC",Methadone Clinic,,,,724-222-6220,,,50 East Wylie Avenue,Suitees 2 and 3,Washington,PA,15301,40.18218702,-80.26353102,,,,Yes,Yes,,,,,False,,,,,,,,,,,,,,,,,,,,,,,,,,,True,,,
287,,,,100170,,,samhsa_otp,"Habit Opco, LLC",Habit OPCO - Watsontown,,,,570-538-1240,,,759 Susquehanna Trail,,Watsontown,PA,17777,41.06100002,-76.84353096,,,,Yes,Yes,,,,,False,,,,,,,,,,,,,,,,,,,,,,,,,,,False,,,
288,,,,100171,,,samhsa_otp,"Wilkes-Barre Behavioral Hospital Company, LLC.",CHOICES,,,,570-408-9320,,,Rear 307 Laird Street,,Wilkes-Barre,PA,18702,41.25668702,-75.8287233,,,,Yes,Yes,,,,,False,,,,,,,,,,,,,,,,,,,,,,,,,,,False,,,
289,,,,100172,,,samhsa_otp,"Western Psychiatric Institute and Clinic, Narcotic Addiction treatment Program",,,,,412-864-5300,,,225 Penn Avenue,,Wilkinsburg,PA,15221,40.44676799,-79.89179001,,,,Yes,Yes,,,,,False,,,,,,,,,,,,,,,,,,,,,,,,,,,True,,,
290,,,,100173,,,samhsa_otp,White Deer Run Cove Forge,,,,,800-873-2131,,,202 Cove Forge Road,,Williamsburg,PA,16693,40.48503,-78.17228096,,,,Yes,Yes,,,,,False,,,,,,,,,,,,,,,,,,,,,,,,,,,True,,,
291,,,,100174,,,samhsa_otp,"Williamsport Family Medical Center, LLC",,,,,570-505-1123,,,422 Park Avenue,,Williamsport,PA,17701,41.24472899,-77.009942,,,,Yes,Yes,,,,,False,,,,,,,,,,,,,,,,,,,,,,,,,,,False,,,
292,,,,100176,,,samhsa_otp,White Deer Run of York,,,,,717-840-2308,,,106 Davies Drive,,York,PA,17402,39.98748865,-76.65186616,,,,Yes,Yes,,,,,False,,,,,,,,,,,,,,,,,,,,,,,,,,,False,,,
293,,,,100177,,,samhsa_otp,Pyramid Healthcare York Pharmacotherapy Services,,,,,717-840-2300,,,104 Davies Drive,,York,PA,17402,39.98747468,-76.65185737,,,,Yes,Yes,,,,,False,,,,,,,,,,,,,,,,,,,,,,,,,,,False,,,
294,,,,100178,,,samhsa_otp,Bradford Regional Medical Center,,,,,814-362-8421,,,116 Interstate Parkway,,Bradford,PA,16701,41.961151,-78.65936099,,,,Yes,Yes,,,,,False,,,,,,,,,,,,,,,,,,,,,,,,,,,True,,,
295,,,,100179,,,samhsa_otp,ESPER TREATMENT CENTER,,,,,814-459-0817,,,844 East Columbus Avenue,,Corry,PA,16407,41.93198499,-79.61226997,,,,Yes,Yes,,,,,False,,,,,,,,,,,,,,,,,,,,,,,,,,,True,,,
296,,,,100182,,,samhsa_otp,"Pinnacle Treatment Centers PA-IX, LLC",Hazleton Treatment Services,,,,570-497-5173,,,534 West Broad Street,,Hazleton,PA,18201,40.95474861,-75.97640279,,,,Yes,Yes,,,,,False,,,,,,,,,,,,,,,,,,,,,,,,,,,False,,,
297,,,,100183,,,samhsa_otp,Clearbrook Treatment Centers,Huntington Creek Recovery Center,,,,,,,890 Bethel Hill Road,,Shickshinny,PA,18655,41.24675402,-76.23403199,,,,Yes,Yes,,,,,False,,,,,,,,,,,,,,,,,,,,,,,,,,,False,,,
298,,100051,,,,100011,dbhids_coe,Penn Medicine,Presbyterian Medical Center,,https://www.med.upenn.edu/psychiatry/presbyterian_treatment.html,,267-809-5080,,,3910 Powelton Avenue,,Philadelphia,PA,19104,39.95851601,-75.19923701,,,,,Yes,,,,,,False,,,False,,,,,,,,,,,,,,,,,,,,,,,True,Source removed record,,
299,,100052,,,,,dbhids_coe,Project HOME,,,https://projecthome.org/,,215-320-6187 x5756,,,1515 Fairmount Avenue,,Philadelphia,PA,19104,39.967466,-75.16294898,,,,,Yes,,,,,,False,,,,,,,,,,,,,,,,,,,,,,,,,,True,Source removed record,,
300,,100030,,,,100054,dbhids_else,Penn Medicine,Total Recovery (Outpatient),,https://www.med.upenn.edu/recovery/,https://www.drug-rehabs.org/rehab-center/Total-Recovery-at-Penn-Medicine_Philadelphia_PA.htm,215-662-8747,,,4040 Market Street,"2nd Floor, Suite 200 & 220",Philadelphia,PA,19104,39.95693598,-75.20344799,Yes,Yes,No,,Yes,,,,,,False,,,False,,,,,,,,Yes,Yes,,,,,,,,,,Yes,,,,False,,Address & phone found via website,
301,,,,,,100055,other_mat,Penn Psychiatry,Charles O'Brien Center for Addiction Treatment,,https://www.med.upenn.edu/addiction/,,215-746-5900,,,3535 Market Street,"5th Floor, Suite 500",Philadelphia,PA,19104,39.95655402,-75.19373202,Yes,,,,Yes,,,,,,,,,False,,,,,,,,,,,,,,,,,,,,,,,False,,,
302,100135,,,,,,samhsa_else,Rehab After Work,Substance Abuse Treatment in Northeast Philadelphia,,https://rehabafterwork.pyramidhealthcarepa.com/locations/pennsylvania/northeast-philadelphia/,,610-644-6464,888-694-9996,,9815 Roosevelt Boulevard,Suite B,Philadelphia,PA,19114,40.08574999,-75.02204098,Yes,No,No,No,Yes,,,,False,,,,,,,,No,No,No,Yes,No,Yes,Yes,No,No,Yes,No,No,No,No,No,No,No,No,Yes,Yes,False,,"[_] Double check MAT (FT Loc says none, but Dec 2020 data confirmed at least 2 waivered buprenorphine providers at this address)",
303,,,,,,100057,other_mat,Penn Medicine,Pennsylvania Hospital,,https://www.pennmedicine.org/practices/hospital-medicine-pennsylvania-hospital,,800-789-7366,,,800 Spruce St,,Philadelphia,PA,19107,39.9456,-75.15559998,Yes,,,,Yes,,,13 listings for waivered practitioners confirmed in 2020q3/q4,,,,,,False,,Yes,,,,,,,,,,,,,,,,,,,,,False,,geobupe_001,
304,,,,,,100058,other_mat,Penn Medicine,Internal Medicine University City (HUP),,https://www.pennmedicine.org/practices/internal-medicine-university-city,,215-349-5200,800-789-7366,,3701 Market St,Suite 741,Philadelphia,PA,19104,39.95684999,-75.19604903,Yes,,,,Yes,,,9 listings for waivered practitioners confirmed in 2020q3/q4 (1 of 2 suites),,,,,,False,,,,,,,,,,,,,,,,,,,,,,,False,,geobupe_002[a],
305,,,,,,100060,other_mat,Penn Medicine,"Family Care, University City (Penn Presbyterian)",,https://www.pennmedicine.org/practices/family-care,,215-662-8777,800-789-7366,,3737 Market St,9th Floor,Philadelphia,PA,19104,39.95666514,-75.19733289,Yes,,,,Yes,,,8 listings for waivered practitioners confirmed in 2020q3/q4,,,,,,False,,Yes,,,,,,,,,,,,,,,,,,,,,False,,geobupe_003,
306,,,,,,100061,other_mat,Temple Health,TRUST Clinic (Temple Recovery Using Scientific Treatments),,https://www.templehealth.org/services/population-health/trust-clinic,,215-707-1122,,,1316 West Ontario St,,Philadelphia,PA,19140,40.00443366,-75.15063785,Yes,,,,Yes,,,Partnering with multiple local Community Health Centers (see website) | 7 listings for waivered practitioners confirmed in 2020q3/q4,,,,,,False,,Yes,,,,,,,,,,,,,,,,,,,,,False,,geobupe_004,
