oid,site_id,map_marker,name1,name2,name3,website1,website2,phone1,phone2,phone3,street1,street2,city,state_usa,zipcode,latitude,longitude,bu,nu,mu,otp,mat_avail,asm,ba,ref_notes,hh,hwm,rhl,rhs,wm,uo,fqhc,prim_care,telehealth,md,mc,oi,pa,oit,op,ta,hs,mhs,ccc,dvh,pw,ad,se,gl,sp,ah,fem,male,dental,wdc,hcv,ref1,ref2,ref3,ref4,ref5,ref6,ref7,archival_only,why_hidden,data_review,date_update
100001,S00193,tbd_unclear,Asociación Puertorriqueños en Marcha,,,https://apmphila.org/how-we-help/health/,,267-296-7220,267-798-7560,,112 East Allegheny Avenue,,Philadelphia,PA,19134,39.998162,-75.12884,,,,,,,,,,,,,,,,,,,,,,,,,,,,,,,,,,,,,,,,,,,,,,,True,,,
100002,S00029,ba_weekly,CATCH (Citizens Acting Together Can Help),River's Bend Addiction Treatment Unit,,https://catchinc.com/services/drug-alchohol/riversbend-addiction-treatment-unit/,,215-735-7435,215-755-6112,,2401 Penrose Avenue,2nd Floor,Philadelphia,PA,19145,39.90916199,-75.18831103,,,,,,,True,"For bed availability, see: ""Riversbend""",False,False,False,True,False,,,,,,,,,,,True,,,,,,,,,,,,,,,,,,,,,,,False,,,
100003,S00194,other_mat,Drexel University Medicine,Partnership Comprehensive Care Practice,,https://drexelmedicine.org/patient-services/partnership-comprehensive-care-practice/,https://towerhealth.org/locations/drexel-partnership,215-762-2530 (2nd Floor),215-762-6565 (6th Floor),,1427 Vine Street,,Philadelphia,PA,19102,39.958485,-75.16359397,True,,,,True,,,,,,,,,,,,,,,,,,,,,,,,,,,,,,,,,,,,,,,,,,False,,,
100004,S00307,other_mat,Drexel Internal Medicine,& Drexel Infectious Disease,,https://towerhealth.org/locations/drexel-internal-medicine,https://towerhealth.org/locations/drexel-infectious-disease,215-762-8397,215-762-6555,,245 North 15th St,,Philadelphia,PA,19102,39.95733202,-75.16421541,True,,,,True,,,4 listings for waivered practitioners confirmed in 2020q3/q4,,,,,,,,,,,,,,,,,,,,,,,,,,,,,,,,,,,,,,,False,,geobupe_005,
100005,S00195,other_mat,Tower Health,Psychiatry - Vine Street,,https://towerhealth.org/locations/psychiatry-tower-health-medical-group-psychiatry-vine-street,,267-507-6581,,,1427 Vine Street,8th Floor,Philadelphia,PA,19102,39.958485,-75.16359397,True,,,,True,,,,,,,,,,,,,,,,,,,,,,,,,,,,,,,,,,,,,,,,,,False,,,
100006,S00196,other_mat,Tower Health,Chestnut Hill Hospital,,https://towerhealth.org/locations/chestnut-hill-hospital,,215-248-8200,,,8835 Germantown Avenue,,Philadelphia,PA,19118,40.079624,-75.21231596,True,,,,True,,,,,,,,,,,,,,,,,,,,,,,,,,,,,,,,,,,,,,,,,,False,,,
100007,S00197,other_mat,Tower Health,Family Medicine Residency - Chestnut Hill,,https://towerhealth.org/locations/tower-health-medical-group-family-medicine-residency-chestnut-hill,,215-248-8145,,,8815 Germantown Avenue,5th Floor,Philadelphia,PA,19118,40.07872732,-75.21240188,True,,,,True,,,,,,,,,,,,,,,,,,,,,,,,,,,,,,,,,,,,,,,,,,False,,,
100008,S00198,other_mat,Tower Health,Family Medicine - Broad Street,,https://towerhealth.org/locations/tower-health-medical-group-family-medicine-broad-street,,215-762-5145,,,219 North Broad Street,1st Floor,Philadelphia,PA,19107,39.956888,-75.16223904,True,,,,True,,,,,,,,,,,,,,,,,,,,,,,,,,,,,,,,,,,,,,,,,,False,,,
100009,S00078,other_mat,Jefferson University Hospitals,,,https://hospitals.jefferson.edu/find-a-location/locations/1015-walnut-street.html,https://www.jefferson.edu/academics/colleges-schools-institutes/skmc/departments/family-medicine/fellowships/hospice-palliative/faculty.html,215-503-6337,,,1015 Walnut Street,Suite 401,Philadelphia,PA,19107,39.94879401,-75.15793099,True,,,,True,,,,,,,,,,,,,,,,,,,,,,,,,,,,,,,,,,,,,,,,,,False,,,
100010,S00082,tbd_unclear,Northeast Treatment Centers (NET),North Counseling Center,,http://netcenters.org/services/addiction-recovery-programs/,,215-226-1600,,,2701 North Broad Street,,Philadelphia,PA,19132,39.99415101,-75.15391899,,,,,,,,,,,,,,,,,,,,,,,,,,,,,,,,,,,,,,,,,,,,,,,True,,,
100011,S00298,dbhids_coe,Penn Medicine,Presbyterian Medical Center,,https://www.med.upenn.edu/psychiatry/presbyterian_treatment.html,,267-809-5080,,,3910 Powelton Avenue,,Philadelphia,PA,19104,39.95851601,-75.19923701,,,,,True,,,,,,,,,,,,,,,,,,,,,,,,,,,,,,,,,,,,,,,,,,True,Source removed record,,
100012,S00210,other_mat,CleanSlate,Outpatient Addiction Medicine,Port Richmond,https://www.cleanslatecenters.com/philadelphia-port-richmond-pennsylvania,,215-433-1855,833-505-4673 (HOPE),,3380 Memphis Street,,Philadelphia,PA,19134,39.99129176,-75.10247758,True,,,,True,,,,,,,,,,,,,,,,,,,,,,,,,,,,,,,,,,,,,,,,,,False,,,
100013,S00214,other_mat,Main Line Health,"Mario Littman, MD, and Sam Hamid, MD",,https://www.mainlinehealth.org/find-a-doctor/mario-littman,,215-878-7050,,,7300 City Avenue,Suite 203,Philadelphia,PA,19151,39.980165,-75.26765404,True,,,,True,,,,,,,,,,,,,,,,,,,,,,,,,,,,,,,,,,,,,,,,,,False,,,
100014,S00200,other_mat,Psychiatry in Philadelphia & the Main Line,"Michael Ascher, MD",,https://aschermd.com/,,646-812-1421,,,255 South 17th Street,Suite 605,Philadelphia,PA,19103,39.94822961,-75.1693963,True,,,,True,,,Suite 1008 and Suite 1410 at this same street address have other waivered buprenorphine practitioners.,,,,,,,,,,,,,,,,,,,,,,,,,,,,,,,,,,,,,,,False,,"[_] Add other address from practice website too? Main Line: 257 East Lancaster Avenue, Suite 204, Wynnewood, PA 19096",
100015,S00206,other_mat,BAYADA Home Health Care,Philadelphia Visits,,https://www.bayada.com/offices/pa/philadelphia/1020-n--delaware-ave/home-health,,215-413-0600,267-800-1009,,1020 North Delaware Avenue,,Philadelphia,PA,19125,39.965826,-75.13278503,True,,,,True,,,,,,,,,,,,,,,,,,,,,,,,,,,,,,,,,,,,,,,,,,False,,,
100016,S00203,other_mat,Courage Medicine Health Center Inc.,"Trisha Acri, MD",,https://couragemedicine.org/about/,https://www.integratedcarenews.com/sites/courage-medicine-health-center/,267-217-3217,,,1010 West Lehigh Avenue,,Philadelphia,PA,19133,39.992899,-75.14854602,True,,,,True,,,,,,,,,,,,,,,,,,,,,,,,,,,,,,,,,,,,,,,,,,False,,NPI updated Sept 2020 lists this practice address,
100017,S00204,tbd_unclear,Courage Medicine,,,https://couragemedicine.org/,https://www.integratedcarenews.com/sites/courage-medicine-health-center/,267-217-3217,215-385-5031,,7198 Castor Avenue,,Philadelphia,PA,19149,40.04920402,-75.06845903,True,,,,True,,,,,,,,,,,,,,,,,,,,,,,,,,,,,,,,,,,,,,,,,,False,,,
100018,S00201,other_mat,Beasley Addiction Specialists,"C. Britt Beasley, MD",,https://beasleyaddiction.com/,,267-417-9078,,,2401 Pennsylvania Avenue,Suite #1C-44,Philadelphia,PA,19130,39.96678401,-75.17772997,True,,,,True,,,,,,,,,,,False,True,False,False,False,False,,,,,,,,,,,,,,,,,,,,,,,,,,False,,,
100019,S00207,xx_unlikely,Beaumont Retirement,at Bryn Mawr,,https://www.beaumontretirement.com/about/management-team/,,,,,1201 Latona Street,,Philadelphia,PA,19147,39.93472801,-75.16426301,,,,,,,,,,,,,,,,,,,,,,,,,,,,,,,,,,,,,,,,,,,,,,,True,Not a practice site,Archiving this entry simply to rule out 1 BP address as MAT listing,
100020,S00202,other_mat,"Private Practice of Psychiatry, Philadelphia","Chris Pagnani, MD PC",,https://chrispagnanimd.com/,,267-687-0655,,,1528 Walnut Street,Suite 1415,Philadelphia,PA,19102,39.94945698,-75.16733196,True,,,,True,,,,,,,,,,,,,,,,,,,,,,,,,,,,,,,,,,,,,,,,,,False,,,
100021,S00211,other_mat,FamilyMedAssoc,Dr. John J. Bowden Jr.,Center City Office,https://www.familymedassoc.com/,,215-977-7721,,,205 North Broad Street,Suite 500,Philadelphia,PA,19107,39.95645201,-75.16233702,True,,,,True,,,,,,,,,,,,,,,,,,,,,,,,,,,,,,,,,,,,,,,,,,False,,,
100022,S00205,other_mat,Adult Psychiatry and Pain Management,"Richard M. Sobel, MD",,https://richardsobelmd.com/,,215-731-1901,,,1500 Walnut Street,Suite 902,Philadelphia,PA,19102,39.94914098,-75.16636201,True,,,,True,,,,,,,,,,,,,,,,,,,,,,,,,,,,,,,,,,,,,,,,,,False,,,
100023,S00215,other_mat,Southeastern Executive Health,"David Clements, MD, and Daniel Bigman, MD",,https://www.myexecutivehealth.com/about-us,,267-361-1001,,,1845 Walnut Street,Suite 1540,Philadelphia,PA,19103,39.950697,-75.171595,True,,,,True,,,,,,,,,,,,True,False,False,False,,,,,,,,,,,,,,,,,,,,,,,,,,,False,,,
100024,S00199,tbd_unclear,Phila Pain Clinic,,,http://www.philapainclinic.com/,,215-969-2331,,,12000 Bustleton Avenue,Suite 208,Philadelphia,PA,19116,40.122286,-75.01654102,True,,,,True,,,,,,,,,,,,,,,,,,,,,,,,,,,,,,,,,,,,,,,,,,True,Data needs review,[_] Is pain management clinic unsuitable for listing in MAT finder?,
100025,S00213,tbd_unclear,Horizon House,,,https://www.hhinc.org/,,215-386-3838,,,5901 Market Street,3rd Floor,Philadelphia,PA,19139,39.96207099,-75.23911902,,,,,,,,,,,,,,,,,,,,,,,,,True,True,,,,,,,,,,,,,,,,,,,,,False,,[_] Is this site directly affiliated with DVCH Fairmount Primary Care at Horizon House? (oid 152),
100026,S00208,other_mat,AbsoluteCare,Philadelphia,,https://www.absolutecare.com/members-patients/abcare-philadelphia/,,267-463-5800,,,1080 North Delaware Avenue,Suite 800,Philadelphia,PA,19125,39.9656834,-75.13248116,True,,,,True,,,,,,,,,,False,True,,,,,,,,True,,,,,,,,,,,,,,,,,,,,,,,False,,,
100027,S00209,other_mat,CleanSlate,Outpatient Addiction Medicine,Philadelphia Treatment Center,https://www.cleanslatecenters.com/philadelphia-pennsylvania,,267-238-2406,833-505-4673 (HOPE),,2300 South Broad Street,Suite 205,Philadelphia,PA,19145,39.92181401,-75.17068498,True,,,,True,,,,,,,,,,,,,,,,,,,,,,,,,,,,,,,,,,,,,,,,,,False,,,
100028,S00212,other_mat,FamilyMedAssoc,Dr. John J. Bowden Jr.,Cheltenham Office,https://www.familymedassoc.com/,,215-548-3390,,,1738 West Cheltenham Avenue,,Philadelphia,PA,19126,40.06638101,-75.14515504,True,,,,True,,,,,,,,,,,,,,,,,,,,,,,,,,,,,,,,,,,,,,,,,,False,,,
100029,S00006,ba_weekly,RHD,Family House Now,,https://www.rhd.org/program/family-house-now-new-options-for-women/,,215-878-8616,,,1020 North 48th Street,,Philadelphia,PA,19131,39.97091464,-75.21732349,,,,,True,,True,"Women only | For bed availability, see: ""Family House Now""",False,False,True,True,False,,,,,,,,,,,,,,True,,,,,,,,True,False,,,,,,,,,,,False,,,
100030,S00007,ba_weekly,Firetree Ltd.,Conewago Place (Hummelstown),,https://www.firetree.com/locations/conewago-place/,,717-533-0428,888-347-3873,,424 Nye Road,,Hummelstown,PA,17036,40.23964601,-76.64827604,,,,,True,,True,"Men only | For bed availability, see: ""Firetree/Conewago Hummelstown""",False,False,True,True,False,,,,,,,,,,,True,,,,,,,,,,,False,True,,,,,,,,,,,False,,,
100031,S00008,ba_weekly,Firetree Ltd.,Conewago Pottsville,,https://www.firetree.com/locations/conewago-pottsville/,,570-628-5835,888-347-3873,,202 South Centre Street,,Pottsville,PA,17901,40.68397502,-76.193465,,,,,True,,True,"For bed availability, see: ""Firetree/Conewago Pottsville""",False,False,False,True,True,,,,,,,,,,,True,,,,,,,,,,,True,True,,,,,,,,,,,False,,,
100032,S00009,ba_weekly,"Good Friends, Inc.",,,https://goodfriendsinc.org,,215-736-2861,,,868 West Bridge Street,,Morrisville,PA,19067,40.20093499,-74.79211104,,,,,,,True,"Men only | For bed availability, see: ""Good Friends""",True,False,False,False,False,,,,,,,,,,,,,,,,,,,,,,False,True,,,,,,,,,,,False,,,
100033,S00010,ba_weekly,Penn Medicine,HUP Cedar,,https://www.pennmedicine.org/for-patients-and-visitors/penn-medicine-locations/hospital-of-the-university-of-pennsylvania-cedar-ave,https://www.trinityhealthma.org/location/mcmc-mercy-philadelphia,215-748-9000,,,501 South 54th Street,,Philadelphia,PA,19143,39.95241393,-75.23024877,True,,,False,True,,True,"For bed availability, see: ""HUP Cedar""",False,True,False,False,True,,,,,,,,,,,,,,,,,,,,,,,,,,,,,,,,,,False,,,
100034,S00015,ba_weekly,Keystone Center,,,https://keystonecenter.net/,,610-876-9000,,,2001 Providence Avenue,,Chester,PA,19013,39.86595399,-75.36057498,True,True,False,False,True,,True,"For bed availability, see: ""Keystone Center""",False,False,False,True,True,,,,,,,,,,,,,,,,,,,,,,,,,,,,,,,,,,False,,,
100035,S00017,ba_weekly,"Libertae, Inc.",Freedom in Recovery,,https://www.libertae.org/,,215-639-8681,,,5245 Bensalem Boulevard,,Bensalem,PA,19020,40.114369,-74.90854699,,,,,,,True,"Women only | For bed availability, see: ""Libertae""",True,False,True,False,False,,,,True,,,,,,,,,,,,,,,,,,True,False,,,,,,,,,,,False,,,
100036,S00026,ba_weekly,Nuestra Clínica Residential,Spanish American Civic Association,,https://sacapa.org/human-services/nuestra-clinica/,,717-397-6267,717-431-1435,,50 East New Street,,Lancaster,PA,17602,40.04891098,-76.30599197,,,,,,,True,"Men only | For bed availability, see: ""Nuestra Clinica Residencial""",False,False,True,True,False,,,,,True,,,,,,True,,,,,,,,,True,,False,True,,,,,,,,,,,False,,,
100037,S00004,ba_weekly,Eagleville Hospital,,,https://www.eagleville.org/,,610-539-6000,800-255-2019,610-539-6000 x1,100 Eagleville Road,,Eagleville,PA,19403,40.15626598,-75.41479902,,,,True,True,,True,"For bed availability, see: ""Eagleville""",False,True,True,True,True,,,,,,,,,,,,,,,,,,,,,,,,,,,,,,,,,,False,,,
100038,S00028,ba_weekly,"Re-Enter, Inc.",,,https://philadelphia.pa.networkofcare.org/mh/services/agency.aspx?pid=REENTERINCemclasscbhPhillyCBHem_209_2_0,,215-222-2770 x106 (24 Hours),,,3331 Powelton Avenue,,Philadelphia,PA,19104,39.96048702,-75.19076701,,,,,,,True,"Men only | For bed availability, see: ""Re-Enter""",False,False,True,True,False,,,,,True,,,,,,,,,,,,,,,,,False,True,,,,,,,,,,,False,Data needs review,"Website has just blank page ""Coming soon""",
100039,S00019,ba_weekly,Malvern Treatment Centers,Philadelphia Inpatient,Constitution Health Plaza,https://www.malverntreatment.com/malvern-philadelphia/,,610-625-8376,,,1930 South Broad Street,3rd Floor,Philadelphia,PA,19145,39.92632402,-75.17026898,,,,,True,,True,"For bed availability, see: ""Malvern Treatment Centers (7278)""",False,False,False,True,True,,,,,,,,,,,,,,,,,,,,,,,,,,,,,,,,,,False,,Opened 2021-02-22,
100040,S00020,ba_weekly,Malvern Treatment Centers,Malvern Inpatient,,https://www.malverntreatment.com/malvern-pa/,,610-625-8376,,,940 West King Road,,Malvern,PA,19355,40.02924925,-75.54418768,,,,,True,,True,"For bed availability, see: ""Malvern Treatment Centers (7278)""",False,False,False,True,True,,,,,,,,,,,,,,,,,,,,,,,,,,,,,,,,,,False,,Address is only for GPS (mail: P.O. Box 356),
100041,S00021,ba_weekly,Malvern Treatment Centers,Bethlehem Outpatient,,https://www.malverntreatment.com/allentown-pa/,,610-625-8376,,,2092 Stefko Boulevard,,Bethlehem,PA,18017,40.64191102,-75.34634301,,,,,True,,True,"For bed availability, see: ""Malvern Treatment Centers (7278)""",False,False,False,True,True,,,,,,,,,,,,,,,,,,,,,,,,,,,,,,,,,,False,,,
100042,S00022,ba_weekly,Malvern Treatment Centers,Pottstown Outpatient,,https://www.malverntreatment.com/pottstown-pa/,,610-625-8376,,,1566 Medical Drive,Suite 201,Pottstown,PA,19464,40.238336,-75.61349103,,,,,True,,True,"For bed availability, see: ""Malvern Treatment Centers (7278)""",False,False,False,True,True,,,,,,,,,,,,,,,,,,,,,,,,,,,,,,,,,,False,,,
100043,S00034,ba_monthly,Journey of Hope Project,,,https://dbhids.org/about/organization/office-of-mental-health/office-of-addiction-services/the-journey-of-hope-project/,https://www.journeyofhopeproject.net/,,,,[No address or phone identified: see website for locations],,Philadelphia,PA,,39.97137201,-75.14977598,,,,,,,True,"For bed availability, see: ""Journey of Hope Project""",,,,,,True,,,,,,,,,,,,,,,,,,,,,,,,,,,,,,,,,False,,,
100044,S00035,ba_monthly,Journey of Hope Project,WomanSpace Philadelphia,,https://www.rhd.org/program/womanspace-philadelphia/,https://dbhids.org/about/organization/office-of-mental-health/office-of-addiction-services/the-journey-of-hope-project/,215-844-2400,,,6400 Germantown Avenue,,Philadelphia,PA,19119,40.045808,-75.18252902,,,,,,,True,"Women only | For bed availability, see: ""Journey of Hope Project""",,,,,,True,,,,,,,,,,,,,,,,,,,,,True,False,,,,,,,,,,,False,,,
100045,S00036,ba_monthly,Journey of Hope Project,Morris Home,,https://www.rhd.org/morrishome/,https://dbhids.org/about/organization/office-of-mental-health/office-of-addiction-services/the-journey-of-hope-project/,215-729-3045,,,5037 Woodland Avenue,,Philadelphia,PA,19143,39.93940599,-75.21516396,,,,,,,True,"For bed availability, see: ""Journey of Hope Project""",,,,,,True,,,,,,,,,,,,,,,,,,,,,,,,,,,,,,,,,False,,,
100046,S00037,ba_monthly,Journey of Hope Project,RHD New Start II (3C),,https://www.rhd.org/program/new-start-ii-at-jackson-street/,https://dbhids.org/about/organization/office-of-mental-health/office-of-addiction-services/the-journey-of-hope-project/,215-537-8236,,,5000 Jackson Street,,Philadelphia,PA,19124,40.01556601,-75.07419997,,,,,,,True,"For bed availability, see: ""Journey of Hope Project""",,,,,,True,,,,,,,,,,,,,,,,,,,,,,,,,,,,,,,,,False,,,
100047,S00038,ba_monthly,Journey of Hope Project,RHD New Start I,,https://www.rhd.org/program/new-start-i/,https://dbhids.org/about/organization/office-of-mental-health/office-of-addiction-services/the-journey-of-hope-project/,215-228-2323,,,3653 North 15th Street,,Philadelphia,PA,19140,40.00921199,-75.15270303,,,,,,,True,"For bed availability, see: ""Journey of Hope Project""",,,,,,True,,,,,,,,,,,,,,,,,,,,,,,,,,,,,,,,,False,,,
100048,S00040,dbhids_assessment,Friends Hospital,,,https://friendshospital.com/,,215-831-2600,800-889-0548,215-831-4600,4641 Roosevelt Boulevard,,Philadelphia,PA,19124,40.02570799,-75.10244002,True,False,False,False,True,True,,Offers assessment,,,,,,,,,,,,,,,,,,,,,,,,,,,,,,,,,,,,,,,False,,,
100049,S00041,dbhids_assessment,Einstein Medical Center Philadelphia,,,https://www.einstein.edu/einstein-medical-center-philadelphia,,215-951-8300,215-456-7890,,5501 Old York Road,,Philadelphia,PA,19141,40.03739899,-75.14355996,True,False,False,False,True,True,,Offers assessment,,,,,,,,,,,,,,,,,,,,,,,,,,,,,,,,,,,,,,,False,,,
100050,S00042,dbhids_assessment,Penn Medicine,Hall Mercer Community Mental Health Assessment Center,,https://www.med.upenn.edu/recovery/,,215-829-5249 (open 24 hours),215-829-5433,,245 South 8th Street,,Philadelphia,PA,19106,39.94681899,-75.15424798,,False,False,,,True,,Offers assessment,,,,,,,,,,,,,,,,,,,,,,,,,,,,,,,,,,,,,,,False,,,
100051,S00043,dbhids_assessment,Temple Health,Temple University Hospital - Episcopal Campus,Crisis Response Center,https://www.templehealth.org/services/psychiatry/crisis-response-center,https://www.templehealth.org/locations/episcopal-campus-tuh,215-707-2577,215-707-1200,,100 East Lehigh Avenue,,Philadelphia,PA,19125,39.98999999,-75.12924501,True,False,False,False,True,True,,Offers assessment,,,,,,,,,,,,,,,,,,,,,,,,,,,,,,,,,,,,,,,False,,,
100052,S00044,dbhids_assessment,Philadelphia Children's Crisis Response Center,,,https://www.philachildrenscrc.com/,,215-878-2600,877-287-4620,,3300 Henry Avenue,"Falls Two Building, 3rd Floor",Philadelphia,PA,19129,40.01177098,-75.18455996,False,False,False,,,True,,Offers assessment,,,,,,,,,,,,,,,,,,,,,,True,,,,,,,,,,,,,,,,,False,,,
100053,S00047,dbhids_else,Asociación Puertorriqueños en Marcha (APM),,,https://apmphila.org/how-we-help/health/,,267-296-7220,267-296-7200,267-296-7223,4301 Rising Sun Avenue,,Philadelphia,PA,19140,40.015901,-75.12910001,True,False,False,False,True,,,,,,,,,,,,False,True,False,True,False,True,True,True,True,True,False,True,False,False,False,False,True,False,True,True,,,,,,,,,,,False,,,
100054,S00300,dbhids_else,Penn Medicine,Total Recovery (Outpatient),,https://www.med.upenn.edu/recovery/,https://www.drug-rehabs.org/rehab-center/Total-Recovery-at-Penn-Medicine_Philadelphia_PA.htm,215-662-8747,,,4040 Market Street,"2nd Floor, Suite 200 & 220",Philadelphia,PA,19104,39.95693598,-75.20344799,True,True,False,,True,,,,,,,,,,,,,,,,,True,True,,,,,,,,,,True,,,,,,,,,,,,,,False,,Address & phone found via website,
100055,S00301,other_mat,Penn Psychiatry,Charles O'Brien Center for Addiction Treatment,,https://www.med.upenn.edu/addiction/,,215-746-5900,,,3535 Market Street,"5th Floor, Suite 500",Philadelphia,PA,19104,39.95655402,-75.19373202,True,,,,True,,,,,,,,,,,,,,,,,,,,,,,,,,,,,,,,,,,,,,,,,,False,,,
100056,S00122,samhsa_otp,Southeastern Pennsylvania Comprehensive Treatment Centers,Huntingdon Valley CTC,,https://www.sepennctc.com/location/huntingdon-valley/,,855-613-6098,,,2755 Philmont Avenue,,Huntingdon Valley,PA,19006,40.121653,-75.04771399,True,False,True,True,True,,,,,,,,,,,,True,True,True,True,False,False,True,False,False,False,False,False,False,False,False,False,False,True,True,True,,,,,,,,,,,False,,[_] OTP at this address has changed its name and affiliation; this listing provides more recent website and phone than SAMHSA,
100057,S00303,other_mat,Penn Medicine,Pennsylvania Hospital,,https://www.pennmedicine.org/practices/hospital-medicine-pennsylvania-hospital,,800-789-7366,,,800 Spruce St,,Philadelphia,PA,19107,39.9456,-75.15559998,True,,,,True,,,13 listings for waivered practitioners confirmed in 2020q3/q4,,,,,,,,True,,,,,,,,,,,,,,,,,,,,,,,,,,,,,,,False,,geobupe_001,
100058,S00304,other_mat,Penn Medicine,Internal Medicine University City (HUP),,https://www.pennmedicine.org/practices/internal-medicine-university-city,,215-349-5200,800-789-7366,,3701 Market St,Suite 741,Philadelphia,PA,19104,39.95684999,-75.19604903,True,,,,True,,,9 listings for waivered practitioners confirmed in 2020q3/q4 (1 of 2 suites),,,,,,,,,,,,,,,,,,,,,,,,,,,,,,,,,,,,,,,False,,geobupe_002[a],
100059,S00333,other_mat,Penn Medicine,Edward S. Cooper Internal Medicine (HUP),,https://www.pennmedicine.org/practices/edward-s-cooper-internal-medicine,,215-662-2250,800-789-7366,,3701 Market St,Suite 640,Philadelphia,PA,19104,39.95684999,-75.19604903,True,,,,True,,,9 listings for waivered practitioners confirmed in 2020q3/q4 (2 of 2 suites),,,,,,,,,,,,,,,,,,,,,,,,,,,,,,,,,,,,,,,False,,geobupe_002[b],
100060,S00305,other_mat,Penn Medicine,"Family Care, University City (Penn Presbyterian)",,https://www.pennmedicine.org/practices/family-care,,215-662-8777,800-789-7366,,3737 Market St,9th Floor,Philadelphia,PA,19104,39.95666514,-75.19733289,True,,,,True,,,8 listings for waivered practitioners confirmed in 2020q3/q4,,,,,,,,True,,,,,,,,,,,,,,,,,,,,,,,,,,,,,,,False,,geobupe_003,
100061,S00306,other_mat,Temple Health,TRUST Clinic (Temple Recovery Using Scientific Treatments),,https://www.templehealth.org/services/population-health/trust-clinic,,215-707-1122,,,1316 West Ontario St,,Philadelphia,PA,19140,40.00443366,-75.15063785,True,,,,True,,,Partnering with multiple local Community Health Centers (see website) | 7 listings for waivered practitioners confirmed in 2020q3/q4,,,,,,,,True,,,,,,,,,,,,,,,,,,,,,,,,,,,,,,,False,,geobupe_004,
100062,S00308,other_mat,Jefferson University Hospitals,,,https://hospitals.jefferson.edu/find-a-location/locations/1020-sansom-street.html,,800-533-3669 (JEFF-NOW),,,1020 Sansom St,,Philadelphia,PA,19107,39.94922602,-75.15810299,True,,,,True,,,3 listings for waivered practitioners confirmed in 2020q3/q4,,,,,,,,True,,,,,,,,,,,,,,,,,,,,,,,,,,,,,,,False,,geobupe_006,
100063,S00309,other_mat,Crossroads,of East Westmoreland Street,,https://locations.crossroadstreatmentcenters.com/pa/philadelphia/PA120/,,800-805-6989,,,2317 East Westmoreland St,,Philadelphia,PA,19134,39.990576,-75.10436401,True,,,,True,,,3 listings for waivered practitioners confirmed in 2020q3/q4,,,,,,,,,,,,,,,,,,,,,,,,,,,,,,,,,,,,,,,False,,"geobupe_007: [_] See website for 3 other Philadelphia locations maybe to add (same phone for all = 800-805-6989): 4821 Frankford Ave, Suite E, 19124 | 2307 N Broad Street, 19132 | 1335 W. Tabor Rd, 19141",
100064,S00310,other_mat,Temple Health,Comprehensive HIV Program (Main Campus),,https://www.templehealth.org/services/comprehensive-hiv,https://www.templehealth.org/locations/temple-university-hospital,215-707-2401,800-836-7536 (800-TEMPLE-MED),,3322 North Broad St,,Philadelphia,PA,19140,40.00403079,-75.15246497,True,,,,True,,,3 listings for waivered practitioners confirmed in 2020q3/q4 | See also Temple Episcopal Campus (per website),,,,,,,,True,,,,,,,,,,,,,,,,,,,,,,,,,,,,,,,False,,geobupe_008,
100065,S00311,other_mat,Temple Health,Medical Education and Research Building (MERB),Lewis Katz School of Medicine,https://medicine.temple.edu/about/administrative-offices/office-faculty-affairs,,,,,3500 North Broad St,11th Floor,Philadelphia,PA,19140,40.00631499,-75.15223901,True,,,,True,,,3 listings for waivered practitioners confirmed in 2020q3/q4,,,,,,,,,,,,,,,,,,,,,,,,,,,,,,,,,,,,,,,True,Not a practice site,"geobupe_009: See instead: 3401 North Broad Street, 19140 (Temple)",
100066,S00312,other_mat,Penn Medicine,Treatment Research Center,,https://www.pennmedicine.org/practices/treatment-research-center,,,,,3900 Chestnut St,,Philadelphia,PA,19104,39.954975,-75.200459,True,,,,True,,,3 listings for waivered practitioners confirmed in 2020q3/q4,,,,,,,,,,,,,,,,,,,,,,,,,,,,,,,,,,,,,,,True,Not a practice site (see 3401 North Broad instead),"geobupe_010: See instead: 3400 Spruce Street, 19104 (Penn)",
100067,S00313,other_mat,Murray Brand & Associates,Pinnacle Physicians Group,,https://pinnaclephysicians.com/murray-brand-associates/,https://findadoc.ariahealth.org/details/481/murray-brand-family_medicine-philadelphia,215-338-5200,,,7524 Frankford Ave,,Philadelphia,PA,19136,40.03910801,-75.03525899,True,,,,True,,,3 listings for waivered practitioners confirmed in 2020q3/q4,,,,,,,,True,,,,,,,,,,,,,,,,,,,,,,,,,,,,,,,False,,geobupe_011: [_] See group website for other primary-care practices (e.g. B. Stein) that also offer buprenorphine: https://pinnaclephysicians.com/,
100068,S00314,other_mat,Penn Medicine,Washington Square,,https://www.pennmedicine.org/for-patients-and-visitors/penn-medicine-locations/penn-medicine-washington-square,,800-789-7366 (PENN),,,800 Walnut St,,Philadelphia,PA,19107,39.94785901,-75.15504904,True,,,,True,,,3 listings for waivered practitioners confirmed in 2020q3/q4,,,,,,,,True,,,,,,,,,,,,,,,,,,,,,,,,,,,,,,,False,,geobupe_012,
100069,S00330,other_mat,Temple Health,Temple University Hospital - Jeanes Campus,,,,215-728-2273 (CARE),,,7600 Central Ave,Emergency Department,Philadelphia,PA,19111,40.07083901,-75.087926,True,,,,True,,,2 listings for waivered practitioners confirmed in 2020q3/q4,,,,,,,,,,,,,,,,,,,,,,,,,,,,,,,,,,,,,,,True,Data needs review,geobupe_028,
100070,S00067,dbhids_coe,Penn Medicine,Mothers Matter Program,,https://www.med.upenn.edu/womenswellness/,https://www.pennmedicine.org/updates/blogs/womens-health/2018/march/mothers-matter-offers-compassionate-care-for-maternity-opiate-use,267-593-2969,,,3400 Spruce St,1 West Gates,Philadelphia,PA,19103,39.94998998,-75.19360504,True,False,False,False,True,,,[_] Reconcile DBHIDS/SAMHSA for outpatient yes/no,,,,,,,,,,,,,,False,,,,False,,,True,,,,,,,,,,,,,,,,,,False,,,
100071,S00069,dbhids_coe,Prevention Point,Project HOME Primary Care in Rooms 4-5,,https://ppponline.org/,,215-634-5272,215-320-6187,,2913 Kensington Avenue,,Philadelphia,PA,19134,39.99272902,-75.11965603,True,True,False,False,True,,,,,,,,,,True,True,True,True,True,,,False,False,,,False,,,,,,,True,,,,,,,,,,,,,,False,,,
100072,S00070,dbhids_coe,Project HOME,Stephen Klein Wellness Center,Primary Care in Rooms 4-5,https://projecthome.org/stephen-klein-wellness-center,https://projecthome.org/integrated-medical-behavioral-health-services,215-320-6187 x5756,,,2144 Cecil B. Moore Avenue,,Philadelphia,PA,19121,39.98016601,-75.17080802,True,True,False,False,True,,,,,,,,,,True,True,True,True,True,,,False,False,,,False,,,,,,,,,,,,,,,,,,,,,False,,,
100073,S00072,dbhids_coe,Jefferson University Hospitals,Family Center,Specialized Program for Pregnant Women,https://hospitals.jefferson.edu/departments-and-services/obstetrics-and-gynecology/programs-and-services/maternal-addiction-treatment.html,https://hospitals.jefferson.edu/find-a-location/locations/1233-locust-street.html,215-955-8577,215-955-3792,,1233 Locust Street,Suite 201 or 4th Floor,Philadelphia,PA,19107,39.94811499,-75.16194299,True,False,True,True,True,,,Women only | [_] Reconcile DBHIDS/SAMHSA for buprenorphine no/yes,,,,,,,,,False,True,True,True,False,True,True,True,True,True,True,True,True,False,False,True,False,False,True,False,,,,,,,,,,,False,,,
100074,S00074,dbhids_coe,Temple Wedge Opioid (TWO) Treatment Program,,,https://medicine.temple.edu/news/temple-launches-center-excellence-address-opioid-use-pregnancy,https://www.templehealth.org/locations/temple-university-hospital,215-707-3008,,,3401 North Broad Street,,Philadelphia,PA,19140,40.005339,-75.15073596,True,False,False,False,True,,,,,,,,,,,,,,,,,False,False,,,False,,,True,,,,,,,,,,,,,,,,,,False,,,
100075,S00089,samhsa_otp,Philadelphia Veterans Affairs Medical Center,Corporal Michael J. Crescenz VAMC,,https://www.philadelphia.va.gov/services/Behavioral_Health.asp,,215-823-5809,215-823-4014,215-823-4070,3900 Woodland Avenue,,Philadelphia,PA,19104,39.94819001,-75.19998601,True,True,True,True,True,,,,,,,,,,,,True,False,False,False,False,False,True,True,True,True,False,True,True,False,True,True,False,True,True,True,,,,,,,,,,,False,,,
100076,S00107,samhsa_else,Belmont Behavioral Hospital,,,https://www.belmontbehavioral.com/,,215-877-2000,215-581-3700,,4200 Monument Road,,Philadelphia,PA,19131,39.999924,-75.21511401,,True,False,False,True,,,"SAMHSA Find Treatment lists no buprenorphine, but SAMHSA Buprenorphine Practitioner directory lists several waivered providers at this address",,,,,,,,,True,True,True,True,False,False,False,False,False,True,False,False,False,False,False,False,False,True,True,True,,,,,,,,,,,False,,,
100077,S00108,samhsa_else,Southwest Nu-Stop,Recovery and Educational Center,,https://www.swnustop.com/,,215-729-2014,,,5616 Woodland Avenue,,Philadelphia,PA,19143,39.93381098,-75.22207803,True,True,False,False,True,,,,,,,,,,,,False,True,False,False,False,True,True,True,True,False,False,False,False,False,False,False,False,False,True,True,,,,,,,,,,,False,,,
100078,S00117,samhsa_otp,"Men & Women for Human Excellence, Inc. (MWFHE)",Opioid Treatment Program,,https://mwfhe.org/,,"267-639-9265 (referral line, 8 AM to 8 PM, 7 days)",215-594-3581 (24-hour hotline),215-769-7045,2603 West Cecil B. Moore Avenue,,Philadelphia,PA,19121,39.98140402,-75.17742604,,,,True,True,,,Website lists distinct contact information for 2603 West Cecil B. Moore Ave and 2600 West Cecil B. Moore Ave ,,,,,,,,,,,,,,,,,,,,,,,,,,,,,,,,,,,,,,,False,,,
100079,S00124,samhsa_otp,Montgomery County Recovery Center,,,https://www.rhd.org/program/montgomery-county-recovery-center/,,610-272-3710 x201,610-272-3710 x204,,316 DeKalb Street,,Norristown,PA,19401,40.11403397,-75.34205343,False,True,True,True,True,,,,,,,,,,,,False,True,False,True,False,False,True,False,True,False,False,True,True,False,False,False,False,False,True,True,,,,,,,,,,,False,,,
100080,S00132,samhsa_else,Recovery Centers of America,Lighthouse Voorhees Outpatient,,http://recoverycentersofamerica.com/locations/lighthouse/outpatient/,,856-559-2190,844-242-7956,,526 South Burnt Mill Road,,Voorhees,NJ,08043,39.84752398,-75.005939,False,True,False,False,True,,,,,,,,,,,,True,False,False,True,False,True,True,True,True,True,False,True,False,False,False,False,False,True,True,True,,,,,,,,,,,False,,,
100081,S00133,samhsa_else,Livengrin Counseling Center,,,https://livengrin.org/,,215-638-5200,866-753-9097,,550 Pinetown Road,Suite 150,Fort Washington,PA,19034,40.14099998,-75.194835,False,True,False,False,True,,,,,,,,,,,,False,True,False,True,False,True,True,False,False,False,False,False,False,False,False,False,False,False,True,True,,,,,,,,,,,False,,,
100082,S00136,samhsa_else,Delaware Valley Medical,,,https://pinnacletreatment.com/location/new-jersey/pennsauken/delaware-valley-medical/,,856-665-5100 x1410,856-665-5100,,7980 South Crescent Boulevard,Route 130,Pennsauken,NJ,08109,39.92947402,-75.082979,True,False,True,True,True,,,,,,,,,,,,False,True,True,True,False,True,True,False,True,False,False,True,True,False,False,False,True,False,True,True,,,,,,,,,,,False,,,
100083,S00139,samhsa_else,Crozer Health,First Steps Treatment Center,,https://www.crozerhealth.org/locations/practices/f/first-steps-treatment-center/,,877-257-8377,610-619-8817,610-619-8813,One Medical Center Boulevard,,Chester,PA,19013,39.85601598,-75.36816899,True,True,True,True,True,,,,,,,,,,,,False,True,True,True,False,False,False,False,True,False,False,False,True,False,False,False,False,False,True,True,,,,,,,,,,,False,,,
100084,S00141,fqhc_else,City of Philadelphia Public Health,District Health Center #2,,https://www.phila.gov/services/mental-physical-health/city-health-centers/,,215-685-1803,215-685-1810,,1700 South Broad Street,Unit 201,Philadelphia,PA,19145,39.92895099,-75.16937103,True,,,,True,,,,,,,,,,True,True,False,True,True,,,,,,,,,,,,,,,,,,,,,,,,,,,,False,,,
100085,S00142,fqhc_else,City of Philadelphia Public Health,District Health Center #3,,https://www.phila.gov/services/mental-physical-health/city-health-centers/,,215-685-7504,215-685-7522,,555 South 43rd Street,,Philadelphia,PA,19104,39.94894501,-75.208971,True,,,,True,,,,,,,,,,True,True,False,True,True,,,,,,,,,,,,,,,,,,,,,,,,,,,,False,,,
100086,S00143,fqhc_else,City of Philadelphia Public Health,District Health Center #4,,https://www.phila.gov/services/mental-physical-health/city-health-centers/,,215-685-7601,215-685-7630,,4400 Haverford Avenue,,Philadelphia,PA,19104,39.96252819,-75.21063116,True,,,,True,,,,,,,,,,True,True,False,True,True,,,,,,,,,,,,,,,,,,,,,,,,,,,,False,,,
100087,S00144,fqhc_else,City of Philadelphia Public Health,District Health Center #5,,https://www.phila.gov/services/mental-physical-health/city-health-centers/,,215-685-2933,215-685-2973,,1900 North 20th Street,,Philadelphia,PA,19121,39.98317901,-75.16692997,True,,,,True,,,,,,,,,,True,True,False,True,True,,,,,,,,,,,,,,,,,,,,,,,,,,,,False,,,
100088,S00145,fqhc_else,City of Philadelphia Public Health,District Health Center #6,,https://www.phila.gov/services/mental-physical-health/city-health-centers/,,215-685-3800,215-685-3803,,321 West Girard Avenue,,Philadelphia,PA,19123,39.96991853,-75.14227521,True,,,,True,,,,,,,,,,True,True,True,True,True,,,,,,,,,,,,,,,,,,,,,,,,,,,,False,,,
100089,S00146,fqhc_else,City of Philadelphia Public Health,District Health Center #9,,https://www.phila.gov/services/mental-physical-health/city-health-centers/,,215-685-5701,215-685-5747,,131 East Chelten Avenue,,Philadelphia,PA,19144,40.0379496,-75.17267458,True,,,,True,,,,,,,,,,True,True,False,True,True,,,,,,,,,,,,,,,,,,,,,,,,,,,,False,,,
100090,S00147,fqhc_else,City of Philadelphia Public Health,District Health Center #10,,https://www.phila.gov/services/mental-physical-health/city-health-centers/,,215-685-0639,,,2230 Cottman Avenue,,Philadelphia,PA,19149,40.04814199,-75.06149401,True,,,,True,,,,,,,,,,True,True,True,True,True,,,,,,,,,,,,,,,,,,,,,,,,,,,,False,,,
100091,S00149,fqhc_else,City of Philadelphia Public Health,Strawberry Mansion Health Center,,https://www.phila.gov/services/mental-physical-health/city-health-centers/,,215-685-2400,215-685-2411,,2840 West Dauphin Street,,Philadelphia,PA,19132,39.99084383,-75.17931232,True,,,,True,,,,,,,,,,True,True,False,True,True,,,,,,,,,,,,,,,,,,,,,,,,,,,,False,,,
100092,S00151,fqhc_else,DVCH,Fairmount Primary Care Center at Girard Medical Center,,https://dvch.org/fairmount-primary-girard/,,215-827-8010,215-235-9600,,801 West Girard Avenue,,Philadelphia,PA,19122,39.97137201,-75.14977598,True,,,,True,,,,,,,,,,True,True,True,True,True,,,,,,,,,,,,,,,,,,,,,,,,,,,,False,,,
100093,S00153,fqhc_else,DVCH,Maria de los Santos Health Center,,https://dvch.org/maria-de-los-santos-health-center/,,215-291-2500,,,401 West Allegheny Avenue,,Philadelphia,PA,19133,39.99992798,-75.13683701,True,,,,True,,,,,,,,,,True,True,True,True,True,,,,,,,,,,,,,,,,,,,,,,,,,,,,False,,,
100094,S00157,fqhc_else,Esperanza,Hunting Park Site,and Main Admin Office,https://esperanzahealth.com/,,215-302-3600,215-302-3150 (office),,4417 North 6th Street,,Philadelphia,PA,19140,40.01893298,-75.13652897,True,,,,True,,,,,,,,,,True,True,True,True,True,,,,,,,,,,,,,,,,,,,,,,,,,,,,False,,,
100095,S00158,fqhc_else,Esperanza,Kensington Site,,https://esperanzahealth.com/,,215-302-3600,215-831-1100,,861 East Allegheny Avenue,,Philadelphia,PA,19134,39.99678799,-75.11348201,True,,,,True,,,,,,,,,,True,True,True,True,True,,,,,,,,,,,,,,,,,,,,,,,,,,,,False,,,
100096,S00161,fqhc_else,FPCN / RHD,Abbotsford-Falls Health Center,and Main Admin Office,https://www.fpcn.com/abbottsford-falls/,https://www.rhd.org/program/family-practice-and-counseling-network/,215-843-9720,215-298-0405 (office),,4700 Wissahickon Avenue,"Building D, Suite 118 or 119",Philadelphia,PA,19144,40.01538098,-75.174055,True,,,,True,,,,,,,,,,True,True,True,True,True,,,,,,,,,,,,,,,,,,,,,,,,,,,,False,,,
100097,S00162,fqhc_else,FPCN / RHD,Stephen and Sandra Sheller 11th Street Family Health Services of Drexel University,,https://www.fpcn.com/stephen-and-sandra-sheller-11th-street-family-health-services-of-drexel-university/,https://www.rhd.org/program/family-practice-and-counseling-network/,215-769-1100,,,850 North 11th Street,,Philadelphia,PA,19123,39.96798702,-75.154971,True,,,,True,,,,,,,,,,True,True,True,True,True,,,,,,,,,,,,,,,,,,,,,,,,,,,,False,,,
100098,S00164,fqhc_else,FPCN / RHD,Health Annex,,https://www.fpcn.com/health-annex/,https://www.rhd.org/program/family-practice-and-counseling-network/,215-727-4721,,,6120-B Woodland Avenue,2nd Floor,Philadelphia,PA,19143,39.92891474,-75.22948144,True,,,,True,,,July 2021: closed for renovation but services provided at alternate location (call for details),,,,,,,True,True,True,True,True,,,,,,,,,,,,,,,,,,,,,,,,,,,,False,,,
100099,S00172,fqhc_else,GPHA,Hunting Park Health Center,,https://www.gphainc.org/locations/find-a-location-near-you/#hunting-park-health-center,,215-228-9300,,,1999 West Hunting Park Avenue,,Philadelphia,PA,19140,40.01310999,-75.16109197,True,,,,True,,,,,,,,,,True,True,True,True,True,,,,,,,,,,,,,,,,,,,,,,,,,,,,False,,,
100100,S00177,fqhc_else,PHMC,Congreso Health Center,,https://www.phmc.org/site/programs/health-care-centers/congreso-health-center,,267-765-2272,,,412 West Lehigh Avenue,,Philadelphia,PA,19133,39.99159201,-75.139697,True,,,,True,,,,,,,,,,True,True,,,,,,,,,,,,,,,,,,,,,,,,,,,,,,,False,,,
100101,S00178,fqhc_else,PHMC,Health Connection,,https://www.phmc.org/site/programs/health-care-centers/phmc-health-connection,,215-765-6690,,,1900 North 9th Street,,Philadelphia,PA,19122,39.98117699,-75.14905204,True,,,,True,,,,,,,,,,True,True,True,True,True,,,,,,,,,,,,,,,,,,,,,,,,,,,,False,,,
100102,S00179,fqhc_else,PHMC,Mary Howard Health Center,,https://www.phmc.org/site/programs/health-care-centers/mary-howard,,215-592-4500,,,125 South 9th Street,,Philadelphia,PA,19107,39.94884301,-75.15540099,True,,,,True,,,,,,,,,,True,True,True,True,True,,,,,,,,,,,,,,,,,,,,,,,,,,,,False,,,
100103,S00180,fqhc_else,PHMC,Rising Sun Health Center,,https://www.phmc.org/site/programs/health-care-centers/rising-sun,,215-279-9666,,,5675 North Front Street,,Philadelphia,PA,19120,40.03646801,-75.11935303,True,,,,True,,,,,,,,,,True,True,True,True,True,,,,,,,,,,,,,,,,,,,,,,,,,,,,False,,,
100104,S00181,fqhc_else,Philadelphia FIGHT,Jonathan Lax Treatment Center,and Main Admin Office,https://fight.org/programs/lax-center/,,215-790-1788,215-985-4448 (office),,1233 Locust Street,,Philadelphia,PA,19107,39.94811499,-75.16194299,True,,,,True,,,,,,,,,,True,True,True,True,True,,,,,,,,,,,,,,,,,,,,,,,,,,,,False,,,
100105,S00182,fqhc_else,Philadelphia FIGHT,John Bell Health Center,,https://fight.org/programs/john-bell-center/,,267-725-0252,215-985-4448 (office),,1207 Chestnut Street,,Philadelphia,PA,19107,39.95074,-75.16050499,,True,,,True,,,,,,,,,,True,True,True,True,True,,,,,,,,,,,,,,,,,,,,,,,,,,,,False,,,
100106,S00190,fqhc_else,"Spectrum Health Services, Inc.",Spectrum Community Health Center (SCHC),and Main Admin Office,https://www.spectrumhs.org/locations/spectrum-community-health-center-schc/,,215-471-2750,215-471-2761,,5201 Haverford Avenue,,Philadelphia,PA,19139,39.96542002,-75.225021,True,,,,True,,,,,,,,,,True,True,True,True,True,,,,,,,,,,,,,,,,,,,,,,,,,,,,False,,,
100107,S00185,fqhc_else,Project HOME,Hub of Hope,,https://projecthome.org/hub-hope,https://projecthome.org/integrated-medical-behavioral-health-services,215-309-5225,215-320-6187 x3211,,1401 Arch Street,"Lower Level, Suburban Station Concourse",Philadelphia,PA,19102,39.95473498,-75.16362096,True,,,,True,,,,,,,,,,True,True,True,True,True,,,,,,,,,,,,,,,,,,,,,,,,,,,,False,,,
100108,S00169,fqhc_else,GPHA,Dental and Behavioral Healthcare,,https://www.gphainc.org/locations/find-a-location-near-you/#gpha-inc-dental-and-behavioral-healthcare,,215-724-4700,215-925-2400,,5501 Woodland Avenue,,Philadelphia,PA,19143,39.93547898,-75.220807,True,,,,True,,,,,,,,,,True,True,True,True,True,,,,,,,,,,,,,,,,,,,,,,,,,,,,False,,,
100109,S00174,fqhc_else,GPHA,Southeast Health Center,,https://www.gphainc.org/locations/find-a-location-near-you/#southeast-health-center,,215-339-5100,,,800 Washington Avenue,,Philadelphia,PA,19147,39.93579301,-75.15722004,True,,,,True,,,,,,,,,,True,True,True,True,True,,,,,,,,,,,,,,,,,,,,,,,,,,,,False,,,
100111,S00166,tbd_unclear,GPHA,Carl Moore Health Center,,https://www.gphainc.org/locations/find-a-location-near-you/#carl-moore-health-center,,215-755-7700,215-925-2400,,1401 South 31st Street,,Philadelphia,PA,19146,39.93599099,-75.19505301,,,,,,,,,,,,,,,True,True,True,True,True,,,,,,,,,,,,,,,,,,,,,,,,,,,,True,Data needs review,,
100112,S00186,tbd_unclear,QCHC,Quality Community Family Health Center,,https://qchc.org/facilities-1,,215-227-0300,,,2501 West Lehigh Avenue,,Philadelphia,PA,19132,39.996465,-75.17245004,,,,,,,,,,,,,,,True,True,True,True,True,,,,,,,,,,,,,,,,,,,,,,,,,,,,True,Data needs review,,
100113,S00189,tbd_unclear,Sayre Health Center,,,https://www.sayrehealth.org/,,215-474-4444,,,5800 Walnut Street,,Philadelphia,PA,19139,39.95798498,-75.23858904,,,,,,,,"Call to check location. Website lists new address in header: 227 South 59th Street, 19139, but map & footer still have 5800 Walnut St, 19139.",,,,,,,True,True,True,True,True,,,,,,,,,,,,,,,,,,,,,,,,,,,,True,Data needs review,,
100114,S00165,tbd_unclear,FPCN / RHD,Annex West Health Center,,https://www.fpcn.com/annex-west-health-center/,https://www.rhd.org/program/family-practice-and-counseling-network/,267-350-5150,215-243-2800,,3901 Market Street,,Philadelphia,PA,19104,39.957456,-75.20114599,,,,,,,,,,,,,,,True,True,True,True,True,,,,,,,,,,,,,,,,,,,,,,,,,,,,True,Data needs review,,
100115,S00315,other_mat,geobupe_013,,,,,,,,10800 Bustleton Ave,,Philadelphia,PA,19116,40.110982,-75.02505201,True,,,,True,,,2 listings for waivered practitioners confirmed in 2020q3/q4,,,,,,,,,,,,,,,,,,,,,,,,,,,,,,,,,,,,,,,True,Data needs review,geobupe_013,
100116,S00316,other_mat,geobupe_014,,,,,,,,10800 Knights Rd,,Philadelphia,PA,19114,40.07118899,-74.98307996,True,,,,True,,,2 listings for waivered practitioners confirmed in 2020q3/q4,,,,,,,,,,,,,,,,,,,,,,,,,,,,,,,,,,,,,,,True,Data needs review,geobupe_014,
100117,S00317,other_mat,geobupe_015,,,,,,,,11685-C Bustleton Ave,,Philadelphia,PA,19116,40.11832999,-75.01765003,True,,,,True,,,2 listings for waivered practitioners confirmed in 2020q3/q4,,,,,,,,,,,,,,,,,,,,,,,,,,,,,,,,,,,,,,,True,Data needs review,geobupe_015,
100118,S00318,other_mat,geobupe_016,,,,,,,,1324 West Ritner St,,Philadelphia,PA,19148,39.920332,-75.16931504,True,,,,True,,,2 listings for waivered practitioners confirmed in 2020q3/q4,,,,,,,,,,,,,,,,,,,,,,,,,,,,,,,,,,,,,,,True,Data needs review,geobupe_016,
100119,S00319,other_mat,geobupe_017,,,,,,,,230 North Broad St,,Philadelphia,PA,19102,39.957069,-75.16351904,True,,,,True,,,2 listings for waivered practitioners confirmed in 2020q3/q4,,,,,,,,,,,,,,,,,,,,,,,,,,,,,,,,,,,,,,,True,Data needs review,geobupe_017,
100120,S00320,other_mat,geobupe_018,,,,,,,,2301 South Broad St,,Philadelphia,PA,19148,39.92110699,-75.16926902,True,,,,True,,,2 listings for waivered practitioners confirmed in 2020q3/q4,,,,,,,,,,,,,,,,,,,,,,,,,,,,,,,,,,,,,,,True,Data needs review,geobupe_018,
100121,S00321,other_mat,geobupe_019,,,,,,,,2558 North Front St,,Philadelphia,PA,19133,39.989188,-75.13148902,True,,,,True,,,2 listings for waivered practitioners confirmed in 2020q3/q4,,,,,,,,,,,,,,,,,,,,,,,,,,,,,,,,,,,,,,,True,Data needs review,geobupe_019,
100122,S00322,other_mat,geobupe_020,,,,,,,,3 Crescent Dr,2nd Floor,Philadelphia,PA,19112,39.89595102,-75.17400496,True,,,,True,,,2 listings for waivered practitioners confirmed in 2020q3/q4,,,,,,,,,,,,,,,,,,,,,,,,,,,,,,,,,,,,,,,True,Data needs review,geobupe_020,
100123,S00323,other_mat,geobupe_021,,,,,,,,301 East Erie Ave,,Philadelphia,PA,19134,40.00717798,-75.12261463,True,,,,True,,,2 listings for waivered practitioners confirmed in 2020q3/q4,,,,,,,,,,,,,,,,,,,,,,,,,,,,,,,,,,,,,,,True,Data needs review,geobupe_021,
100124,S00324,other_mat,geobupe_022,,,,,,,,3240 North Hancock St,,Philadelphia,PA,19140,40.00020002,-75.13215999,True,,,,True,,,2 listings for waivered practitioners confirmed in 2020q3/q4,,,,,,,,,,,,,,,,,,,,,,,,,,,,,,,,,,,,,,,True,Data needs review,geobupe_022,
100125,S00325,other_mat,geobupe_023,,,,,,,,3400 Civic Center Blvd,,Philadelphia,PA,19104,39.94754901,-75.19253601,True,,,,True,,,2 listings for waivered practitioners confirmed in 2020q3/q4,,,,,,,,,,,,,,,,,,,,,,,,,,,,,,,,,,,,,,,True,Data needs review,geobupe_023,
100126,S00326,other_mat,geobupe_024,,,,,,,,6715 Old York Rd,,Philadelphia,PA,19126,40.05605898,-75.14020323,True,,,,True,,,2 listings for waivered practitioners confirmed in 2020q3/q4,,,,,,,,,,,,,,,,,,,,,,,,,,,,,,,,,,,,,,,True,Data needs review,geobupe_024,
100127,S00327,other_mat,geobupe_025,,,,,,,,7042 Elmwood Ave,,Philadelphia,PA,19142,39.91629,-75.238367,True,,,,True,,,2 listings for waivered practitioners confirmed in 2020q3/q4,,,,,,,,,,,,,,,,,,,,,,,,,,,,,,,,,,,,,,,True,Data needs review,geobupe_025,
100128,S00328,other_mat,geobupe_026,,,,,,,,7131 Frankford Ave,,Philadelphia,PA,19135,40.03520599,-75.04341097,True,,,,True,,,2 listings for waivered practitioners confirmed in 2020q3/q4,,,,,,,,,,,,,,,,,,,,,,,,,,,,,,,,,,,,,,,True,Data needs review,geobupe_026,
100129,S00329,other_mat,geobupe_027,,,,,,,,7335 Frankford Ave,,Philadelphia,PA,19136,40.03705001,-75.03930904,True,,,,True,,,2 listings for waivered practitioners confirmed in 2020q3/q4,,,,,,,,,,,,,,,,,,,,,,,,,,,,,,,,,,,,,,,True,Data needs review,geobupe_027,
100130,S00331,other_mat,geobupe_029,,,,,,,,7901 State Rd,,Philadelphia,PA,19136,40.03109869,-75.02198096,True,,,,True,,,2 listings for waivered practitioners confirmed in 2020q3/q4,,,,,,,,,,,,,,,,,,,,,,,,,,,,,,,,,,,,,,,True,Data needs review,geobupe_029,
100131,S00332,other_mat,geobupe_030,,,,,,,,9501 Roosevelt Blvd,Suite 206,Philadelphia,PA,19114,40.080783,-75.02696199,True,,,,True,,,2 listings for waivered practitioners confirmed in 2020q3/q4,,,,,,,,,,,,,,,,,,,,,,,,,,,,,,,,,,,,,,,True,Data needs review,geobupe_030,
100132,S00148,tbd_unclear,City of Philadelphia Public Health,Temporary Site - Health Center 10 Annex,,https://www.phila.gov/services/mental-physical-health/city-health-centers/,,215-685-6769,,,2248 Cottman Avenue,,Philadelphia,PA,19149,40.04774699,-75.06070703,,,,,,,,,,,,,,,True,True,True,True,True,,,,,,,,,,,,,,,,,,,,,,,,,,,,True,Data needs review,,
100133,S00140,tbd_unclear,City of Philadelphia Public Health,"Ambulatory Health Services, Main Admin Office",,https://www.phila.gov/departments/department-of-public-health/,,215-685-4758,,,1101 Market Street,8th Floor,Philadelphia,PA,19107,39.95213399,-75.15845301,,,,,,,,,,,,,,,True,,,,,,,,,,,,,,,,,,,,,,,,,,,,,,,,True,Not a practice site,,
100134,S00150,tbd_unclear,DVCH,Fairmount Primary Care Center,,https://dvch.org/fairmount-primary/,,215-235-9600,,,1412 Fairmount Avenue,2nd Floor,Philadelphia,PA,19130,39.96682399,-75.16141199,,,,,,,,,,,,,,,True,True,True,True,True,,,,,,,,,,,,,,,,,,,,,,,,,,,,True,Data needs review,,
100135,S00154,tbd_unclear,DVCH,Maria de los Santos Women's Health Center,,https://dvch.org/maria-de-los-santos-womens-health/,,215-207-0522,215-291-2500,,400 West Allegheny Avenue,Unit B-5,Philadelphia,PA,19133,39.999249,-75.136477,,,,,,,,,,,,,,,True,True,True,True,True,,,,,,,,,,,,,,,,,,,,,,,,,,,,True,Data needs review,,
100136,S00152,tbd_unclear,DVCH,Fairmount Primary Care Center at Horizon House,,https://dvch.org/fairmount-primary-horizon-house/,,215-222-2466,,,5901 Market Street,,Philadelphia,PA,19139,39.96207099,-75.23911902,,,,,,,,,,,,,,,True,True,True,True,True,,,,,,,,,,,,,,,,,,,,,,,,,,,,True,Data needs review,"Compare oid 227 at 120 South 30th St, 19104 (matches website here: https://dvch.org/fairmount-primary-horizon-house/ but not here: https://dvch.org/contact-dvch/) | See oid 213 for Horizon House website",
100137,S00156,tbd_unclear,DVCH,Parkview Health Center,,https://dvch.org/parkview-health-center/,,215-537-7695,,,841 East Hunting Park Avenue,2nd Floor,Philadelphia,PA,19124,40.012076,-75.11035204,,,,,,,,,,,,,,,True,True,True,True,True,,,,,,,,,,,,,,,,,,,,,,,,,,,,True,Data needs review,,
100138,S00155,tbd_unclear,DVCH,Norristown Regional Health Center,,https://dvch.org/norristown-regional-health/,,610-278-7787,,,1401 DeKalb Street,,Norristown,PA,19401,40.12375698,-75.33382104,,,,,,,,,,,,,,,True,True,True,True,True,,,,,,,,,,,,,,,,,,,,,,,,,,,,True,Data needs review,,
100139,S00160,other_mat,Esperanza,Kensington & Allegheny,,https://esperanzahealth.com/,,215-831-1100,215-302-3600,,3156 Kensington Avenue,,Philadelphia,PA,19134,39.99630201,-75.11431902,True,,,,True,,,,,,,,,,True,True,,,,,,,,,,,,,,,,,,,,,,,,,,,,,,,True,Site closed,,
100140,S00159,tbd_unclear,Esperanza,Fifth Street Site,,https://esperanzahealth.com/,,215-302-3600,215-221-6633,,2940 North 5th Street,,Philadelphia,PA,19133,39.99616501,-75.13955098,,,,,,,,,,,,,,,True,True,True,True,True,,,,,,,,,,,,,,,,,,,,,,,,,,,,True,Data needs review,,
100141,S00163,tbd_unclear,FPCN / RHD,Fast Family Care at Shoprite,,,https://www.rhd.org/program/family-practice-and-counseling-network/,267-597-3610,267-597-3600,,2800 Fox Street,Unit A,Philadelphia,PA,19129,40.00899401,-75.17463696,,,,,,,,,,,,,,,True,True,True,True,True,,,,,,,,,,,,,,,,,,,,,,,,,,,,True,Site closed,,
100142,S00167,tbd_unclear,GPHA,Chinatown Medical Services,,https://www.gphainc.org/locations/find-a-location-near-you/#chinatown-medical-services,,215-627-8000,215-925-2400,,432 North 6th Street,,Philadelphia,PA,19123,39.95919584,-75.14867377,,,,,,,,,,,,,,,True,True,True,True,True,,,,,,,,,,,,,,,,,,,,,,,,,,,,True,Data needs review,,
100143,S00175,tbd_unclear,GPHA,Woodland Avenue Health Center,,https://www.gphainc.org/locations/find-a-location-near-you/#woodland-avenue-health-center,,215-726-9807,,,5000 Woodland Avenue,,Philadelphia,PA,19143,39.93959399,-75.21394398,,,,,,,,,,,,,,,True,True,True,True,True,,,,,,,,,,,,,,,,,,,,,,,,,,,,True,Data needs review,,
100144,S00168,tbd_unclear,GPHA,Frankford Avenue Health Center,,https://www.gphainc.org/locations/find-a-location-near-you/#frankford-avenue-health-center,,215-831-9882,215-744-1302,,4510 Frankford Avenue,,Philadelphia,PA,19124,40.01433899,-75.08635004,,,,,,,,,,,,,,,True,True,True,True,True,,,,,,,,,,,,,,,,,,,,,,,,,,,,True,Data needs review,,
100145,S00171,tbd_unclear,GPHA,Spectrum Behavioral Services,,https://www.gphainc.org/locations/find-a-location-near-you/#gpha-spectrum-behavioral-services,,484-472-7430,,,1489 Baltimore Pike,"Building 300, Suite 300",Springfield,PA,19064,39.91192701,-75.35832301,,,,,,,,,,,,,,,True,True,True,True,True,,,,,,,,,,,,,,,,,,,,,,,,,,,,True,Data needs review,,
100146,S00184,tbd_unclear,Philadelphia Fight,Diana Baldwin Mental Health Clinic,,https://fight.org/programs/diana-baldwin-clinic/,,215-525-8657,215-525-8654,,1211 Chestnut Street,,Philadelphia,PA,19107,39.95076699,-75.16071504,,,,,,,,,,,,,,,True,True,True,True,True,,,,,,,,,,,,,,,,,,,,,,,,,,,,True,Data needs review,,
100147,S00183,tbd_unclear,Philadelphia FIGHT,Broad Street Ministry,Community Health Centers Clinic,https://fight.org/programs/broad-street-ministry/,,215-525-8681,215-985-4448 x54448,,315 South Broad Street,,Philadelphia,PA,19107,39.94635264,-75.16484131,,,,,,,,,,,,,,,True,True,True,True,True,,,,,,,,,,,,,,,,,,,,,,,,,,,,True,Data needs review,,
100148,S00188,xx_unlikely,QCHC,Meade Family Health Center,,https://qchc.org/facilities-1,,215-765-9501,,,1800 West Oxford Street,,Philadelphia,PA,19121,39.97837002,-75.16492996,,,,,False,,,,,,,,,,True,True,True,True,True,,,,,,,,,,,,,,,,,,,,,,,,,,,,True,Data needs review,,
100149,S00187,xx_unlikely,QCHC,Cooke Family Health Center,,https://qchc.org/facilities-1,,215-457-6902,,,1300 West Loudon Street,,Philadelphia,PA,19141,40.02582109,-75.14542426,,,,,False,,,,,,,,,,True,True,True,True,True,,,,,,,,,,,,,,,,,,,,,,,,,,,,True,Data needs review,,
100150,S00191,xx_unlikely,"Spectrum Health Services, Inc.",Broad Street Health Center (BSHC),,https://www.spectrumhs.org/locations/broad-street-health-center-bshc/,,215-235-7944,215-471-2761,,1415 North Broad Street,,Philadelphia,PA,19122,39.97498719,-75.15859411,,,,,False,,,,,,,,,,True,True,True,True,True,,,,,,,,,,,,,,,,,,,,,,,,,,,,True,Data needs review,,
100151,S00192,xx_unlikely,"Spectrum Health Services, Inc.",Reed Street Health Center (RSHC),,https://www.spectrumhs.org/locations/reed-street-health-center-rshc/,,215-220-3925,215-471-2761,,1325 South 33rd Street,,Philadelphia,PA,19146,39.93704502,-75.19776498,,,,,False,,,,,,,,,,True,True,True,True,True,,,,,,,,,,,,,,,,,,,,,,,,,,,,True,Data needs review,,
